~VERSION INFORMATION
 VERS.                2.0:   CWLS LOG ASCII STANDARD - VERSION 2.0
 WRAP.                 NO:   ONE LINE PER DEPTH STEP
~WELL INFORMATION
#MNEM.UNIT      DATA TYPE    INFORMATION
#----------   ------------   ------------------------------
 STRT.F           29.5000:   START DEPTH
 STOP.F         4082.0000:   STOP DEPTH
 STEP.F            0.5000:   STEP LENGTH
 NULL.          -999.2500:   NO VALUE
 COMP. LAWRENCE ALLISON & ASSOCIATES:   COMPANY
 WELL. LAWRENCE "X" #88-3:   WELL
 FLD .           N P R #3:   FIELD
 LOC .       S3 T38N R78W:   LOCATION
 CNTY.            NATRONA:   COUNTY
 STAT.            WYOMING:   STATE
 CTRY. UNITED STATES OF AMERICA:   COUNTRY
 SRVC.      DRESSER ATLAS:   SERVICE COMPANY
 DATE.        26-AUG-1984:   LOGDATE
 API .     49025109730000:   API NUMBER
~CURVE INFORMATION
#MNEM.UNIT       API CODE    CURVE DESCRIPTION
#----------   ------------   ------------------------------
 DEPT.F                  :   
 DT  .US/F   60 520 00 00:   DELTA TIME
 TENS.LBS    60 635 01 00:   TENSION FROM SONIC
 GRR .GAPI   07 310 01 00:   GAMMA RAY FROM RESISTIVITY
 SPR .MV     07 010 01 00:   SPONTANEOUS POTENTIAL
 ILD.OHMM   07 120 46 00:   DEEP INDUCTION RESISTIVITY
 ILM.OHMM   07 120 44 00:   INDUCTION LOG MEDIUM RESISTIVITY
 RFOC.OHMM   07 220 04 00:   RESISTIVITY FOCUSED LOG RES.
 TENR.LBS    07 635 01 00:   TENSION FROM RESISTIVITY
 CALD.IN     45 280 60 00:   CALIPER FROM DENSITY LOG
 NPHI.DEC    42 890 03 00:   NEUTRON POROSITY SANDSTONE
 RHOB.G/C3   45 350 01 00:   BULK DENSITY
 CORR.G/C3   45 356 01 00:   DENSITY CORRECTION
 TEND.LBS    45 635 01 00:   TENSION FROM DENSITY LOG
~PARAMETER INFORMATION
#MNEM.UNIT          VALUE    DESCRIPTION
#----------   ------------   ------------------------------
 EKB .F         5137.0000:   Kelly bushing
 EGL .F         5127.0000:   Ground level
 EDF .F         5138.0000:   Drilling floor
 TD  .F         4080.0000:   Total depth
 DATE.        26-AUG-1984:   Date logged
 CLNT.            A2DTECH:   Client Code
 SL  . 43' FSL & 309' FEL:   Surface Location
 PD  .                 GL:   Permanent Datum
 EPD .F              5127:   Elevation Permanent Datum
 LMF .                 KB:   Log Measured From
 DMF .                 KB:   Drilling Measured From
 DD  .F              4080:   Depth driller
 DL  .F              4071:   Depth logger
 BLI .F              4069:   Bottom log interval
 TLI .F                26:   Top log interval
 CS1 .IN            8.625:   Casing size
 CBD1.       8.625 @ 516':   Casing driller 1
 CBL1.F               517:   Casing logger 1
 BS1 .IN            7.875:   Bit size
 DFT .            KCL MUD:   Type fluid in hole
 DFD .                  9:   Density
 DFV .                 38:   Viscosity
 DFPH.                8.5:   pH
 DFL .                 11:   Fluid loss
 MSS .           FLOWLINE:   Source of sample
 RMS .OHMM            3.7:   Rm
 MST .F                65:   Rm Meas. temp.
 RMF .OHMM            2.8:   Rmf
 MFST.F                65:   Rmf Meas. temp.
 RMC .OHMM            4.6:   Rmc
 MCST.F                65:   Rmc Meas. temp.
 MFSS.               CALC:   Source Rmf.
 RMB .OHMM           1.63:   Rm. at BHT
 BHT .F               148:   BHT.
 TCS .HRS               5:   Time Circ. stopped
 MRT .F               148:   Maximum recorded temp.
 LUN .               4082:   Logging unit number
 LUL .          ROOSEVELT:   Logging unit location
 ENGI.            FRANCIS:   Recorded By
 WITN.            JOHNSON:   Witnessed by
 ORIG.         2.5" PRINT:   Origin of data
 UWI .     49025109730000:   Unique Well ID
 DICO. A2D TECHNOLOGIES, INC.:   Digitizing Company
 DAPD.                 10:   Feet Above Permanent Datum
 BSD1.               4080:   Depth drilled with bit1
 MCSS.               CALC:   Source Rmc.
~OTHER INFORMATION
~A   DEPT       DT       TENS         GRR       SPR       RILD       RILM       RFOC       TENR       CALD       NPHI       RHOB       CORR       TEND   
# ...
 2135.5000    87.9080   -80.6770    81.7760   -47.8960     6.1700     6.0530     8.7740   -67.6650     9.3000     0.2850     2.5330     0.0520   -72.8980
 2136.0000    89.1630   -80.6770    82.6480   -47.5580     5.9640     5.6840     8.3370   -67.5770     9.3000     0.2960     2.5460     0.0750   -71.4630
 2136.5000    90.6870   -80.6770    84.1530   -47.4010     5.7590     5.3160     7.7220   -67.4880     9.3010     0.3230     2.5430     0.0840   -70.0280
 2137.0000    91.8700   -80.6770    87.9590   -47.3520     5.5530     4.9470     7.1080   -67.4000     9.3010     0.3230     2.5410     0.0900   -68.5930
 2137.5000    92.6680   -80.6770    93.4920   -47.2960     5.3470     4.7950     6.4940   -67.3120     9.3020     0.3230     2.5310     0.0830   -67.1580
 2138.0000    93.4660   -80.6770    99.4800   -47.2380     5.1410     4.7950     5.8790   -67.2230     9.3020     0.3160     2.5210     0.0770   -65.7230
 2138.5000    93.2870   -80.6770   102.8650   -47.1880     5.0290     4.7950     5.6320   -67.1350     9.3030     0.3110     2.5130     0.0710   -64.2880
 2139.0000    92.5700   -80.6770   101.8040   -47.1240     4.9710     4.8520     5.5510   -67.0470     9.3030     0.3050     2.5080     0.0710   -62.8540
 2139.5000    91.8080   -80.6770   101.3690   -47.0720     4.9130     4.9190     6.2090   -66.9580     9.3040     0.2990     2.5160     0.0860   -61.4190
 2140.0000    91.7180   -80.6770   100.7330   -47.0800     4.8560     4.9860     7.3520   -66.8700     9.3050     0.2910     2.5230     0.0820   -64.3710
 2140.5000    92.0920   -80.6770   100.1090   -47.4580     4.7950     5.0530     7.1560   -66.7820     9.3050     0.2950     2.5300     0.0790   -78.8570
 2141.0000    92.9980   -80.6770    99.5260   -47.7770     4.8590     5.1200     6.7650   -66.6930     9.3060     0.3060     2.5290     0.0740   -93.3420
 2141.5000    93.6010   -80.6770    98.9500   -48.1150     4.9750     5.1870     6.3730   -66.6050     9.3060     0.3140     2.5280     0.0700   -99.7500
 2142.0000    93.4590   -80.6770    98.2730   -48.4630     5.0900     5.2550     5.9810   -66.5160     9.3070     0.3180     2.5170     0.0610   -98.6930
 2142.5000    93.1210   -80.6770    98.3150   -48.6360     5.2060     5.3220     5.7580   -66.4280     9.3070     0.3210     2.5030     0.0520   -97.6360
 2143.0000    92.6760   -80.6770    99.0530   -48.6150     5.3220     5.3890     5.8350   -66.3400     9.3080     0.3060     2.4880     0.0430   -96.5790
 2143.5000    92.0920   -80.6770    99.3350   -48.6190     5.4370     5.4500     5.9540   -66.2510     9.3080     0.2980     2.4760     0.0260   -95.5220
 2144.0000    90.6890   -80.6770    93.7150   -48.6280     5.5530     5.4140     6.0830   -66.1630     9.3090     0.2880     2.4710     0.0080   -94.4640
 2144.5000    89.4550   -80.6770    86.5590   -48.6010     5.6540     5.2940     7.1950   -66.0750     9.3100     0.2910     2.4740     0.0000   -93.4070
 2145.0000    88.7050   -80.6770    87.9960   -48.6590     5.5810     5.1740     8.4580   -65.9860     9.3100     0.2990     2.4790     0.0180   -92.3500
 2145.5000    89.7780   -80.6770    90.3340   -48.3070     5.5170     5.0540     7.9860   -65.8980     9.3110     0.3070     2.4840     0.0210   -91.2930
 2146.0000    90.8500   -80.6770    93.2850   -48.1650     5.4530     4.9340     7.4940   -65.8100     9.3110     0.3220     2.4900     0.0240   -90.2360
 2146.5000    91.9220   -80.6770    93.6270   -48.0930     5.3900     4.7950     6.6940   -65.7210     9.3120     0.3130     2.4980     0.0250   -89.1790
 2147.0000    92.4300   -80.6770    92.6080   -48.0340     5.3260     4.7950     5.7580   -65.6330     9.3120     0.3070     2.5100     0.0320   -88.1220
 2147.5000    92.2910   -80.6770    90.9590   -47.9510     5.2540     4.7950     5.7580   -65.5450     9.3130     0.3020     2.5270     0.0420   -87.0650
 2148.0000    91.4510   -80.6770    89.4180   -47.8820     5.1270     4.7950     5.7580   -65.4560     9.3140     0.3020     2.5440     0.0530   -86.0070
 2148.5000    90.5200   -80.6770    87.6580   -47.8410     4.9730     4.7830     6.0340   -65.3680     9.3140     0.3050     2.5570     0.0510   -84.9500
 2149.0000    89.8210   -80.6770    86.7790   -48.0190     4.9170     4.7460     6.4210   -65.2800     9.3150     0.3070     2.5620     0.0390   -83.8930
 2149.5000    89.3030   -80.6770    91.8530   -48.2060     4.8570     4.7090     6.6660   -65.1910     9.3150     0.3100     2.5630     0.0280   -82.8360
 2150.0000    89.8020   -80.6770   107.1200   -48.4010     4.7970     4.6720     6.6660   -65.1030     9.3160     0.3120     2.5550     0.0360   -81.7790
 2150.5000    90.3110   -80.6770   124.4880   -48.5910     4.7360     4.6360     6.3340   -65.0150     9.3160     0.3150     2.5400     0.0430   -80.7220
 2151.0000    90.8210   -80.6770   130.5400   -48.7820     4.6760     4.6220     5.8640   -64.9260     9.3170     0.3180     2.5290     0.0560   -80.3390
 2151.5000    91.3310   -80.6770   128.5810   -48.9780     4.6150     4.6220     5.8860   -64.8380     9.3170     0.3200     2.5260     0.0700   -80.3390
 2152.0000    91.8410   -80.6770   117.5020   -49.1620     4.5550     4.6220     5.9120   -64.7500     9.3180     0.3170     2.5220     0.0830   -80.3390
 2152.5000    92.3510   -80.6770   112.7140   -49.3540     4.4950     4.5900     5.9370   -64.6610     9.3190     0.3060     2.5170     0.0960   -80.3390
 2153.0000    92.9980   -80.6770   113.3180   -49.1670     4.3750     4.5290     5.9730   -64.5730     9.3190     0.2950     2.5070     0.0900   -80.3390
 2153.5000    93.9160   -80.6770   114.2900   -48.8180     4.5060     4.4560     5.8140   -64.4850     9.3200     0.2970     2.4940     0.0780   -80.3390
 2154.0000    94.4170   -80.6770   110.2590   -48.4770     4.7310     4.6340     5.6540   -64.3960     9.3200     0.3070     2.4830     0.0650   -80.3390
 2154.5000    94.2180   -80.6770   105.7800   -48.2370     4.9560     4.8560     5.9290   -64.3080     9.3210     0.3240     2.4890     0.0550   -80.3390
 2155.0000    93.9120   -80.6770   109.0190   -48.3130     5.1810     5.0780     6.3630   -64.2200     9.3210     0.3160     2.5030     0.0450   -80.3390
 2155.5000    93.7600   -80.6770   113.3650   -48.4030     5.4060     5.3000     6.7520   -64.1310     9.3220     0.3070     2.5310     0.0760   -80.3390
 2156.0000    94.0520   -80.6770   116.0790   -48.5020     5.6310     5.5230     7.0390   -64.0430     9.3220     0.3170     2.5250     0.0650   -80.3390
 2156.5000    94.3430   -80.6770   116.9710   -48.5950     5.8560     5.7450     7.3260   -63.9550     9.3230     0.3270     2.5150     0.0560   -80.3390
 2157.0000    94.3680   -80.6770   116.9480   -48.6900     6.0810     5.9670     7.6130   -63.8660     9.3240     0.3370     2.5040     0.0260   -80.3390
 2157.5000    94.1490   -80.6770   116.8120   -48.7830     6.3060     6.1890     8.0060   -63.7780     9.3240     0.3400     2.4940     0.0200   -84.9970
 2158.0000    93.9310   -80.6770   117.7900   -48.8790     6.5310     6.4110     7.9190   -63.6900     9.3250     0.3420     2.4910     0.0290   -96.3960
 2158.5000    93.7120   -80.6770   119.8320   -48.9710     6.9150     6.6330     7.7820   -63.6010     9.3250     0.3430     2.4830     0.0380  -107.7960
 2159.0000    93.4930   -80.6770   119.7040   -49.0700     6.8980     6.7900     7.5780   -63.5130     9.3260     0.3360     2.4770     0.0440  -120.2590
 2159.5000    93.2750   -80.6770   118.7640   -49.1620     6.8400     6.6660     8.6140   -63.4250     9.3260     0.3290     2.4740     0.0530  -108.6330
 2160.0000    93.0560   -80.6770   115.3400   -49.2510     6.7820     6.4700     8.4580   -63.3360     9.3270     0.3220     2.4830     0.0430   -95.8080
 2160.5000    92.8380   -80.6770   110.9730   -49.3800     6.7240     6.3430     8.1090   -63.2480     9.3270     0.3150     2.4920     0.0240   -82.9840
 2161.0000    92.8530   -80.6770   107.0070   -49.1450     6.6660     6.1970     7.7450   -63.1600     9.3270     0.3080     2.4950     0.0190   -87.1260
