~VERSION INFORMATION
 VERS.                2.0:   CWLS LOG ASCII STANDARD - VERSION 2.0
 WRAP.                 NO:   ONE LINE PER DEPTH STEP
~WELL INFORMATION
#MNEM.UNIT      DATA TYPE    INFORMATION
#----------   ------------   ------------------------------
 STRT.F           29.5000:   START DEPTH
 STOP.F         4082.0000:   STOP DEPTH
 STEP.F            0.5000:   STEP LENGTH
 NULL.          -999.2500:   NO VALUE
 COMP. LAWRENCE ALLISON & ASSOCIATES:   COMPANY
 WELL. LAWRENCE "X" #88-3:   WELL
 FLD .           N P R #3:   FIELD
 LOC .       S3 T38N R78W:   LOCATION
 CNTY.            NATRONA:   COUNTY
 STAT.            WYOMING:   STATE
 CTRY. UNITED STATES OF AMERICA:   COUNTRY
 SRVC.      DRESSER ATLAS:   SERVICE COMPANY
 DATE.        26-AUG-1984:   LOGDATE
 API .     49025109730000:   API NUMBER
~CURVE INFORMATION
#MNEM.UNIT       API CODE    CURVE DESCRIPTION
#----------   ------------   ------------------------------
 DEPT.F                  :   
 DT  .US/F   60 520 00 00:   DELTA TIME
 TENS.LBS    60 635 01 00:   TENSION FROM SONIC
 GRR .GAPI   07 310 01 00:   GAMMA RAY FROM RESISTIVITY
 SPR .MV     07 010 01 00:   SPONTANEOUS POTENTIAL
 ILD.OHMM   07 120 46 00:   DEEP INDUCTION RESISTIVITY
 ILM.OHMM   07 120 44 00:   INDUCTION LOG MEDIUM RESISTIVITY
 RFOC.OHMM   07 220 04 00:   RESISTIVITY FOCUSED LOG RES.
 TENR.LBS    07 635 01 00:   TENSION FROM RESISTIVITY
 CALD.IN     45 280 60 00:   CALIPER FROM DENSITY LOG
 NPHI.DEC    42 890 03 00:   NEUTRON POROSITY SANDSTONE
 RHOB.G/C3   45 350 01 00:   BULK DENSITY
 CORR.G/C3   45 356 01 00:   DENSITY CORRECTION
 TEND.LBS    45 635 01 00:   TENSION FROM DENSITY LOG
~PARAMETER INFORMATION
#MNEM.UNIT          VALUE    DESCRIPTION
#----------   ------------   ------------------------------
 EKB .F         5137.0000:   Kelly bushing
 EGL .F         5127.0000:   Ground level
 EDF .F         5138.0000:   Drilling floor
 TD  .F         4080.0000:   Total depth
 DATE.        26-AUG-1984:   Date logged
 CLNT.            A2DTECH:   Client Code
 SL  . 43' FSL & 309' FEL:   Surface Location
 PD  .                 GL:   Permanent Datum
 EPD .F              5127:   Elevation Permanent Datum
 LMF .                 KB:   Log Measured From
 DMF .                 KB:   Drilling Measured From
 DD  .F              4080:   Depth driller
 DL  .F              4071:   Depth logger
 BLI .F              4069:   Bottom log interval
 TLI .F                26:   Top log interval
 CS1 .IN            8.625:   Casing size
 CBD1.       8.625 @ 516':   Casing driller 1
 CBL1.F               517:   Casing logger 1
 BS1 .IN            7.875:   Bit size
 DFT .            KCL MUD:   Type fluid in hole
 DFD .                  9:   Density
 DFV .                 38:   Viscosity
 DFPH.                8.5:   pH
 DFL .                 11:   Fluid loss
 MSS .           FLOWLINE:   Source of sample
 RMS .OHMM            3.7:   Rm
 MST .F                65:   Rm Meas. temp.
 RMF .OHMM            2.8:   Rmf
 MFST.F                65:   Rmf Meas. temp.
 RMC .OHMM            4.6:   Rmc
 MCST.F                65:   Rmc Meas. temp.
 MFSS.               CALC:   Source Rmf.
 RMB .OHMM           1.63:   Rm. at BHT
 BHT .F               148:   BHT.
 TCS .HRS               5:   Time Circ. stopped
 MRT .F               148:   Maximum recorded temp.
 LUN .               4082:   Logging unit number
 LUL .          ROOSEVELT:   Logging unit location
 ENGI.            FRANCIS:   Recorded By
 WITN.            JOHNSON:   Witnessed by
 ORIG.         2.5" PRINT:   Origin of data
 UWI .     49025109730000:   Unique Well ID
 DICO. A2D TECHNOLOGIES, INC.:   Digitizing Company
 DAPD.                 10:   Feet Above Permanent Datum
 BSD1.               4080:   Depth drilled with bit1
 MCSS.               CALC:   Source Rmc.
~OTHER INFORMATION
~A   DEPT       DT       TENS         GRR       SPR       RILD       RILM       RFOC       TENR       CALD       NPHI       RHOB       CORR       TEND   
# ...
  731.5000   101.6970  -107.3980   103.6740   -46.6530     5.4500     4.7240     5.6090   -64.7790     9.5690     0.2980     2.5510     0.0660  -100.2990
  732.0000   101.9370  -107.6520   101.8250   -46.6540     5.4500     4.7090     5.5510   -64.9340     9.5690     0.2980     2.5400     0.0580   -80.7020
  732.5000   102.1770  -107.9050   101.5440   -46.6530     5.4500     4.7130     5.5590   -65.0880     9.5690     0.2980     2.5340     0.0490   -62.1940
  733.0000   102.1690  -108.1580   102.5790   -46.6550     5.4500     4.7170     5.5680   -65.2430     9.5690     0.2970     2.5320     0.0470   -43.6850
  733.5000   102.0510  -108.4110   103.4540   -46.6550     5.4500     4.7220     5.5770   -65.3970     9.5690     0.3020     2.5330     0.0470   -25.1770
  734.0000   101.9320  -108.6640   104.4010   -46.7080     5.4500     4.7260     5.5860   -65.5520     9.5680     0.3050     2.5340     0.0430   -39.4210
  734.5000   101.8130  -108.9170   104.9360   -46.7840     5.4500     4.7310     5.5950   -65.7060     9.5680     0.3030     2.5410     0.0310   -64.8700
  735.0000   101.6950  -109.1710   103.1820   -46.8580     5.4500     4.7350     5.6040   -65.8610     9.5680     0.3020     2.5480     0.0190   -90.3190
  735.5000   101.6770  -109.4240   101.9730   -46.9320     5.4470     4.7390     5.6130   -66.0150     9.5680     0.3000     2.5540     0.0190  -102.4330
  736.0000   101.7140  -109.6770    99.5660   -47.0060     5.4410     4.7440     5.6220   -66.1700     9.5670     0.3060     2.5530     0.0160  -105.9430
  736.5000   101.7510  -109.9300   104.5310   -47.0800     5.4350     4.7480     5.6310   -66.3250     9.5670     0.3120     2.5530     0.0390  -109.4540
  737.0000   101.7870  -110.1830   109.6460   -47.1550     5.4300     4.7520     5.6400   -66.4790     9.5670     0.3200     2.5520     0.0730  -112.9640
  737.5000   101.8240  -110.4360   107.6920   -47.2270     5.4240     4.7570     5.6490   -66.6340     9.5670     0.3180     2.5550     0.1360  -116.4740
  738.0000   101.9020  -110.6900   102.9050   -47.3040     5.4180     4.7610     5.6570   -66.7880     9.5660     0.3150     2.5580     0.1400  -119.9840
  738.5000   102.1220  -110.9430   100.8710   -47.3770     5.4120     4.7650     5.6660   -66.9430     9.5660     0.3160     2.5610     0.1090  -123.4940
  739.0000   102.3430  -111.1960   103.1140   -47.4260     5.4070     4.7700     5.6750   -67.0970     9.5660     0.3170     2.5580     0.1040  -127.0050
  739.5000   102.4830  -111.4490   105.1440   -47.2910     5.4010     4.7740     5.6840   -67.2520     9.5660     0.3180     2.5490     0.0990  -130.5150
  740.0000   102.5470  -111.7020   105.4040   -47.1720     5.3950     4.7780     5.6930   -67.4070     9.5660     0.3150     2.5470     0.0950  -134.0250
  740.5000   102.6120  -111.9550   104.0670   -47.0440     5.3890     4.7830     5.7020   -67.5610     9.5650     0.3130     2.5600     0.0820  -137.5350
  741.0000   102.6070  -112.2090   103.0440   -46.9180     5.3840     4.7870     5.7110   -67.7160     9.5650     0.3150     2.5680     0.0660  -136.2280
  741.5000   102.5040  -112.4620   102.1780   -46.7950     5.3780     4.7910     5.7200   -67.8700     9.5650     0.3140     2.5690     0.0530  -119.2610
  742.0000   102.4020  -112.7150   104.0790   -46.6620     5.3720     4.7960     5.7290   -68.0250     9.5650     0.3110     2.5670     0.0700  -100.2990
  742.5000   102.2990  -112.9680   106.2670   -46.6000     5.3670     4.8000     5.7380   -68.1790     9.5640     0.3070     2.5650     0.0850  -102.3400
  743.0000   102.1960  -113.2210   107.0110   -46.5350     5.3610     4.8040     5.7470   -68.3340     9.5640     0.3040     2.5620     0.0690  -104.6530
  743.5000   102.0930  -113.4740   104.7770   -46.4740     5.3520     4.8090     5.7560   -68.4880     9.5640     0.3000     2.5560     0.0390  -106.9660
  744.0000   102.1030  -113.7280   102.7860   -46.4100     5.3540     4.8130     5.7650   -68.6430     9.5640     0.2790     2.5530     0.0270  -109.2790
  744.5000   102.1890  -113.9810   101.3920   -46.3510     5.3620     4.8170     5.7740   -68.7980     9.5640     0.2950     2.5520     0.0460  -111.5910
  745.0000   102.2740  -114.2340   100.3530   -46.2790     5.3700     4.8220     5.7830   -68.9520     9.5630     0.2890     2.5540     0.0620  -113.9040
  745.5000   102.3600  -114.4870   102.3110   -46.3200     5.3780     4.8260     5.7920   -69.1070     9.5630     0.2960     2.5620     0.0790  -116.2170
  746.0000   102.4460  -114.7400   105.8980   -46.4430     5.3860     4.8310     5.8010   -69.2610     9.5630     0.3010     2.5710     0.0950  -118.5300
  746.5000   102.5310  -114.9930   109.4840   -46.5520     5.3940     4.8350     5.8100   -69.4160     9.5630     0.3040     2.5800     0.1080  -120.8430
  747.0000   102.6170  -115.2470   108.6130   -46.6620     5.4010     4.8390     5.8190   -69.5700     9.5630     0.3060     2.5840     0.1160  -123.1560
  747.5000   102.6490  -115.5000   107.2580   -46.7780     5.4090     4.8440     5.8280   -69.7250     9.5630     0.3050     2.5820     0.1070  -125.4680
  748.0000   102.6490  -115.7530   105.7870   -46.8810     5.4170     4.8480     5.8370   -69.8800     9.5630     0.3030     2.5810     0.0870  -127.7810
  748.5000   102.6490  -116.0060   104.4460   -47.0030     5.4250     4.8520     5.8460   -70.0340     9.5630     0.3030     2.5720     0.0640  -130.0940
  749.0000   102.6490  -116.2590   104.3260   -47.0720     5.4330     4.8570     5.8550   -70.1890     9.5630     0.3030     2.5590     0.0410  -132.4070
  749.5000   102.6490  -116.5120   104.3300   -47.3440     5.4410     4.8610     5.8640   -70.3430     9.5630     0.3030     2.5500     0.0400  -134.7200
  750.0000   102.5020  -116.7660   104.3160   -47.5820     5.4500     4.8650     5.8730   -70.4980     9.5630     0.3040     2.5480     0.0480  -137.0330
  750.5000   102.2500  -117.0190   104.4040   -47.8160     5.4800     4.8700     5.8820   -70.6520     9.5630     0.3050     2.5490     0.0560  -139.3450
  751.0000   101.9970  -117.2720   103.9990   -47.7490     5.5170     4.8740     5.8910   -70.8070     9.5630     0.3000     2.5540     0.0610  -136.0150
  751.5000   101.7440  -117.5250   103.4450   -47.6770     5.5540     4.8780     5.9000   -70.9610     9.5630     0.2980     2.5610     0.0640  -129.2550
  752.0000   101.6210  -117.7780   100.4850   -47.5920     5.5910     4.8840     5.9080   -71.1160     9.5630     0.2960     2.5690     0.0670  -122.4950
  752.5000   101.5710  -118.0310   101.7990   -47.5160     5.6280     4.8840     5.9170   -71.2710     9.5630     0.2970     2.5760     0.0690  -115.7350
  753.0000   101.5200  -118.2840   104.8080   -47.4360     5.6560     4.8970     5.9260   -71.4250     9.5630     0.2970     2.5830     0.0750  -108.9750
  753.5000   101.4700  -118.5380   108.1960   -47.3570     5.6640     4.9390     5.9350   -71.5800     9.5630     0.2980     2.5900     0.0830  -102.2160
  754.0000   101.5310  -118.7910   109.2310   -47.2780     5.6730     4.9820     5.9440   -71.7340     9.5630     0.2980     2.5890     0.0870  -104.4910
  754.5000   101.6430  -119.0440   106.8540   -47.1990     5.6830     5.0240     5.9530   -71.8890     9.5630     0.2970     2.5850     0.0840  -110.3410
  755.0000   101.7550  -119.2970   104.6920   -47.1200     5.6940     5.0670     5.9620   -72.0430     9.5630     0.2860     2.5810     0.0820  -116.1910
  755.5000   101.8530  -119.5500   102.6000   -47.0410     5.7040     5.1090     5.9730   -72.1980     9.5630     0.2920     2.5850     0.0800  -122.0410
  756.0000   101.6390  -119.8030   100.6700   -46.9610     5.7140     5.1520     6.0030   -72.3520     9.5630     0.2990     2.5960     0.0940  -127.8900
  756.5000   101.4500  -120.0570   103.5070   -46.8830     5.7240     5.1940     6.0390   -72.5070     9.5630     0.3130     2.5990     0.1170  -133.7400
  757.0000   101.2550  -120.3100   105.6340   -46.8030     5.7350     5.2370     6.0750   -72.6620     9.5630     0.3270     2.6030     0.1200  -139.5900
