~VERSION INFORMATION
 VERS.                2.0:   CWLS LOG ASCII STANDARD - VERSION 2.0
 WRAP.                 NO:   ONE LINE PER DEPTH STEP
~WELL INFORMATION
#MNEM.UNIT      DATA TYPE    INFORMATION
#----------   ------------   ------------------------------
 STRT.F           29.5000:   START DEPTH
 STOP.F         4082.0000:   STOP DEPTH
 STEP.F            0.5000:   STEP LENGTH
 NULL.          -999.2500:   NO VALUE
 COMP. LAWRENCE ALLISON & ASSOCIATES:   COMPANY
 WELL. LAWRENCE "X" #88-3:   WELL
 FLD .           N P R #3:   FIELD
 LOC .       S3 T38N R78W:   LOCATION
 CNTY.            NATRONA:   COUNTY
 STAT.            WYOMING:   STATE
 CTRY. UNITED STATES OF AMERICA:   COUNTRY
 SRVC.      DRESSER ATLAS:   SERVICE COMPANY
 DATE.        26-AUG-1984:   LOGDATE
 API .     49025109730000:   API NUMBER
~CURVE INFORMATION
#MNEM.UNIT       API CODE    CURVE DESCRIPTION
#----------   ------------   ------------------------------
 DEPT.F                  :   
 DT  .US/F   60 520 00 00:   DELTA TIME
 TENS.LBS    60 635 01 00:   TENSION FROM SONIC
 GRR .GAPI   07 310 01 00:   GAMMA RAY FROM RESISTIVITY
 SPR .MV     07 010 01 00:   SPONTANEOUS POTENTIAL
 ILD.OHMM   07 120 46 00:   DEEP INDUCTION RESISTIVITY
 ILM.OHMM   07 120 44 00:   INDUCTION LOG MEDIUM RESISTIVITY
 RFOC.OHMM   07 220 04 00:   RESISTIVITY FOCUSED LOG RES.
 TENR.LBS    07 635 01 00:   TENSION FROM RESISTIVITY
 CALD.IN     45 280 60 00:   CALIPER FROM DENSITY LOG
 NPHI.DEC    42 890 03 00:   NEUTRON POROSITY SANDSTONE
 RHOB.G/C3   45 350 01 00:   BULK DENSITY
 CORR.G/C3   45 356 01 00:   DENSITY CORRECTION
 TEND.LBS    45 635 01 00:   TENSION FROM DENSITY LOG
~PARAMETER INFORMATION
#MNEM.UNIT          VALUE    DESCRIPTION
#----------   ------------   ------------------------------
 EKB .F         5137.0000:   Kelly bushing
 EGL .F         5127.0000:   Ground level
 EDF .F         5138.0000:   Drilling floor
 TD  .F         4080.0000:   Total depth
 DATE.        26-AUG-1984:   Date logged
 CLNT.            A2DTECH:   Client Code
 SL  . 43' FSL & 309' FEL:   Surface Location
 PD  .                 GL:   Permanent Datum
 EPD .F              5127:   Elevation Permanent Datum
 LMF .                 KB:   Log Measured From
 DMF .                 KB:   Drilling Measured From
 DD  .F              4080:   Depth driller
 DL  .F              4071:   Depth logger
 BLI .F              4069:   Bottom log interval
 TLI .F                26:   Top log interval
 CS1 .IN            8.625:   Casing size
 CBD1.       8.625 @ 516':   Casing driller 1
 CBL1.F               517:   Casing logger 1
 BS1 .IN            7.875:   Bit size
 DFT .            KCL MUD:   Type fluid in hole
 DFD .                  9:   Density
 DFV .                 38:   Viscosity
 DFPH.                8.5:   pH
 DFL .                 11:   Fluid loss
 MSS .           FLOWLINE:   Source of sample
 RMS .OHMM            3.7:   Rm
 MST .F                65:   Rm Meas. temp.
 RMF .OHMM            2.8:   Rmf
 MFST.F                65:   Rmf Meas. temp.
 RMC .OHMM            4.6:   Rmc
 MCST.F                65:   Rmc Meas. temp.
 MFSS.               CALC:   Source Rmf.
 RMB .OHMM           1.63:   Rm. at BHT
 BHT .F               148:   BHT.
 TCS .HRS               5:   Time Circ. stopped
 MRT .F               148:   Maximum recorded temp.
 LUN .               4082:   Logging unit number
 LUL .          ROOSEVELT:   Logging unit location
 ENGI.            FRANCIS:   Recorded By
 WITN.            JOHNSON:   Witnessed by
 ORIG.         2.5" PRINT:   Origin of data
 UWI .     49025109730000:   Unique Well ID
 DICO. A2D TECHNOLOGIES, INC.:   Digitizing Company
 DAPD.                 10:   Feet Above Permanent Datum
 BSD1.               4080:   Depth drilled with bit1
 MCSS.               CALC:   Source Rmc.
~OTHER INFORMATION
~A   DEPT       DT       TENS         GRR       SPR       RILD       RILM       RFOC       TENR       CALD       NPHI       RHOB       CORR       TEND   
# ...
 2863.5000   101.0560   -80.6770   152.3530   -41.6050     2.7210     3.0000     2.9000   -72.3150     8.7670     0.2530     2.2610     0.1130   -77.2790
 2864.0000    96.7090   -80.6770   143.5360   -42.1100     3.1010     3.3370     3.4480   -72.4180     8.7680     0.2360     2.2730     0.1320   -82.9560
 2864.5000    91.1430   -80.6770   125.1250   -43.5270     3.4810     3.6750     4.7030   -72.5200     8.7690     0.2300     2.4090     0.1000   -88.6340
 2865.0000    84.9200   -80.6770   113.4130   -44.6140     3.8610     4.0120     5.8750   -72.6230     8.7700     0.2300     2.5360     0.0660   -94.3110
 2865.5000    81.9460   -80.6770   110.5440   -44.3790     4.2410     4.3500     6.1960   -72.7260     8.7710     0.2320     2.5900     0.0490  -100.2990
 2866.0000    80.3080   -80.6770   111.1480   -44.1730     4.6220     4.6870     6.0350   -72.8290     8.7720     0.2290     2.6120     0.0660   -92.8680
 2866.5000    80.2060   -80.6770   111.3710   -43.9420     5.0020     5.0240     5.8640   -72.9320     8.7730     0.2260     2.6120     0.0800   -85.0070
 2867.0000    80.1050   -80.6770   110.7840   -44.5750     5.4500     5.1590     6.0430   -73.0350     8.7740     0.2220     2.6130     0.0850   -77.1460
 2867.5000    80.0040   -80.6770   109.2240   -45.2080     5.4090     5.1590     6.2230   -73.1380     8.7750     0.2220     2.6140     0.0630   -69.2850
 2868.0000    80.0900   -80.6770   109.0320   -45.9580     5.3600     5.1590     6.4270   -73.2410     8.7750     0.2300     2.6120     0.0400   -60.3790
 2868.5000    80.4950   -80.6770   112.0080   -46.1220     5.3100     5.1590     6.2280   -73.3440     8.7750     0.2370     2.6070     0.0190   -60.3790
 2869.0000    81.2450   -80.6770   115.8320   -45.7060     5.2600     5.1440     5.9980   -73.4470     8.7740     0.2440     2.6020     0.0260   -60.3790
 2869.5000    82.7290   -80.6770   122.2950   -45.3530     5.2110     5.0970     5.7690   -73.5500     8.7730     0.2510     2.5980     0.0500   -60.3790
 2870.0000    83.2170   -80.6770   123.8320   -44.9830     5.1590     5.0490     5.5400   -73.6530     8.7730     0.2560     2.5940     0.0710   -60.3790
 2870.5000    83.8070   -80.6770   123.4710   -44.7110     5.0650     5.0020     5.3510   -73.7560     8.7720     0.2530     2.5860     0.0910   -60.3790
 2871.0000    83.9670   -80.6770   123.2310   -44.9320     5.0650     4.9630     5.4860   -73.8580     8.7710     0.2480     2.5790     0.0770   -60.3790
 2871.5000    83.5610   -80.6770   125.9100   -45.1220     5.0650     4.9380     5.6560   -73.9610     8.7710     0.2420     2.5700     0.0520   -60.3790
 2872.0000    82.9830   -80.6770   126.1860   -45.3180     5.0650     4.9120     5.8260   -74.0640     8.7700     0.2370     2.5710     0.0320   -60.3790
 2872.5000    82.4050   -80.6770   123.8460   -45.5460     5.0650     4.8830     5.9970   -74.1670     8.7690     0.2340     2.5780     0.0240   -71.6900
 2873.0000    81.9540   -80.6770   121.8380   -45.6980     5.0650     4.7650     6.0830   -74.2700     8.7690     0.2370     2.5910     0.0210   -88.7230
 2873.5000    81.9080   -80.6770   122.7140   -46.1570     4.6820     4.6220     6.0830   -74.3730     8.7680     0.2460     2.6030     0.0340   -93.7520
 2874.0000    81.7330   -80.6770   123.6240   -45.6360     4.3340     4.2970     6.0830   -74.4760     8.7680     0.2540     2.6160     0.0660   -73.3130
 2874.5000    83.6000   -80.6770   124.3310   -45.1920     3.9870     3.9470     5.7300   -74.5790     8.7670     0.2640     2.6190     0.0850   -60.8060
 2875.0000    85.5180   -80.6770   126.5970   -44.7820     3.6390     3.5970     5.4230   -74.6820     8.7660     0.2760     2.6110     0.0900   -61.9670
 2875.5000    86.7370   -80.6770   129.8660   -44.4790     3.2910     3.2480     5.1160   -74.7850     8.7660     0.2880     2.6050     0.0730   -63.1280
 2876.0000    89.9070   -80.6770   134.0680   -43.7710     2.9430     2.8980     4.7190   -74.8880     8.7650     0.2980     2.5890     0.0650   -64.2900
 2876.5000    94.0820   -80.6770   146.6220   -42.7930     2.5260     2.5730     4.0420   -74.9910     8.7640     0.3160     2.5840     0.0720   -65.4510
 2877.0000    98.2560   -80.6770   165.4950   -41.9260     2.5810     2.7180     3.3660   -75.0940     8.7640     0.3040     2.4940     0.0790   -66.6120
 2877.5000   100.6570   -80.6770   183.6080   -41.0120     2.7720     3.0100     2.6290   -75.1960     8.7630     0.2860     2.4100     0.1070   -67.7740
 2878.0000    97.0960   -80.6770   190.7830   -41.1540     2.9620     3.3340     2.7680   -75.2990     8.7620     0.2670     2.3570     0.1520   -68.9350
 2878.5000    91.0240   -80.6770   178.0920   -41.7850     3.1530     3.6590     3.8050   -75.4020     8.7620     0.2490     2.3680     0.1400   -70.0960
 2879.0000    84.5220   -80.6770   155.9630   -42.3710     3.3440     3.9840     4.9020   -75.5050     8.7610     0.2330     2.5090     0.1050   -71.2570
 2879.5000    82.2890   -80.6770   131.1520   -42.9590     3.5340     4.3080     6.1960   -75.6080     8.7610     0.2210     2.5710     0.0720   -72.4190
 2880.0000    80.7370   -80.6770   121.3860   -43.5510     3.9560     4.6330     6.3100   -75.7110     8.7600     0.2230     2.6020     0.0510   -73.5800
 2880.5000    80.7370   -80.6770   118.4860   -44.1470     4.6840     4.9580     6.1410   -75.8140     8.7590     0.2250     2.6210     0.0600   -74.7410
 2881.0000    80.6000   -80.6770   117.1450   -44.6920     5.1810     5.2540     5.8640   -75.9170     8.7590     0.2230     2.6250     0.0970   -75.9030
 2881.5000    80.2460   -80.6770   117.6800   -45.1460     5.3410     5.4600     6.0110   -76.0200     8.7580     0.2220     2.6180     0.1200   -77.0640
 2882.0000    79.8920   -80.6770   117.3720   -45.6120     5.4500     5.6220     6.4270   -76.1230     8.7570     0.2250     2.6070     0.1130   -78.2250
 2882.5000    79.5380   -80.6770   116.8230   -45.8820     5.5490     5.7570     6.4700   -76.2260     8.7570     0.2320     2.5960     0.0910   -79.3870
 2883.0000    79.3050   -80.6770   116.3680   -45.7590     5.6810     5.8920     6.5080   -76.3290     8.7560     0.2340     2.5850     0.0430   -80.3390
 2883.5000    79.2200   -80.6770   115.8490   -45.6760     5.8140     5.9730     6.5450   -76.4320     8.7550     0.2250     2.5740     0.0360  -100.2990
 2884.0000    79.1430   -80.6770   115.3850   -45.5750     5.8830     6.0010     6.6140   -76.5340     8.7550     0.2170     2.5800     0.0280  -100.2990
 2884.5000    78.7770   -80.6770   114.9740   -45.4780     5.9630     6.0300     6.6810   -76.6370     8.7540     0.2100     2.5910     0.0330  -100.2990
 2885.0000    78.4400   -80.6770   113.3690   -45.3820     6.0830     6.0580     6.7490   -76.7400     8.7530     0.2120     2.6030     0.0410  -100.2990
 2885.5000    78.1020   -80.6770   109.0920   -45.2840     6.0560     6.0830     6.8160   -76.8430     8.7530     0.2160     2.6070     0.0490  -100.2990
 2886.0000    78.0030   -80.6770   104.5930   -45.1880     6.0000     6.0190     6.8840   -76.9460     8.7520     0.2200     2.6050     0.0530  -100.2990
 2886.5000    78.1040   -80.6770   103.5180   -45.0900     5.9440     5.9290     6.9150   -77.0490     8.7520     0.2200     2.6030     0.0570  -100.2990
 2887.0000    78.5460   -80.6770   107.7960   -44.9940     5.8880     5.8390     6.8410   -77.1520     8.7510     0.2200     2.5990     0.0610  -100.2990
 2887.5000    79.1430   -80.6770   109.5040   -44.8930     5.7760     5.7490     6.7900   -77.2550     8.7500     0.2240     2.5960     0.0640  -100.2990
 2888.0000    79.7610   -80.6770   110.2870   -44.8000     5.6240     5.6590     6.4390   -77.3580     8.7500     0.2300     2.5980     0.0680  -100.2990
 2888.5000    80.1220   -80.6770   110.9260   -44.6960     5.4500     5.5690     6.1450   -77.4610     8.7490     0.2360     2.5990     0.0710  -100.2990
 2889.0000    80.5380   -80.6770   112.5020   -44.7320     5.4760     5.4500     5.7580   -77.5640     8.7480     0.2420     2.6010     0.0740  -100.2990
