~VERSION INFORMATION
 VERS.                2.0:   CWLS LOG ASCII STANDARD - VERSION 2.0
 WRAP.                 NO:   ONE LINE PER DEPTH STEP
~WELL INFORMATION
#MNEM.UNIT      DATA TYPE    INFORMATION
#----------   ------------   ------------------------------
 STRT.F           29.5000:   START DEPTH
 STOP.F         4082.0000:   STOP DEPTH
 STEP.F            0.5000:   STEP LENGTH
 NULL.          -999.2500:   NO VALUE
 COMP. LAWRENCE ALLISON & ASSOCIATES:   COMPANY
 WELL. LAWRENCE "X" #88-3:   WELL
 FLD .           N P R #3:   FIELD
 LOC .       S3 T38N R78W:   LOCATION
 CNTY.            NATRONA:   COUNTY
 STAT.            WYOMING:   STATE
 CTRY. UNITED STATES OF AMERICA:   COUNTRY
 SRVC.      DRESSER ATLAS:   SERVICE COMPANY
 DATE.        26-AUG-1984:   LOGDATE
 API .     49025109730000:   API NUMBER
~CURVE INFORMATION
#MNEM.UNIT       API CODE    CURVE DESCRIPTION
#----------   ------------   ------------------------------
 DEPT.F                  :   
 DT  .US/F   60 520 00 00:   DELTA TIME
 TENS.LBS    60 635 01 00:   TENSION FROM SONIC
 GRR .GAPI   07 310 01 00:   GAMMA RAY FROM RESISTIVITY
 SPR .MV     07 010 01 00:   SPONTANEOUS POTENTIAL
 ILD.OHMM   07 120 46 00:   DEEP INDUCTION RESISTIVITY
 ILM.OHMM   07 120 44 00:   INDUCTION LOG MEDIUM RESISTIVITY
 RFOC.OHMM   07 220 04 00:   RESISTIVITY FOCUSED LOG RES.
 TENR.LBS    07 635 01 00:   TENSION FROM RESISTIVITY
 CALD.IN     45 280 60 00:   CALIPER FROM DENSITY LOG
 NPHI.DEC    42 890 03 00:   NEUTRON POROSITY SANDSTONE
 RHOB.G/C3   45 350 01 00:   BULK DENSITY
 CORR.G/C3   45 356 01 00:   DENSITY CORRECTION
 TEND.LBS    45 635 01 00:   TENSION FROM DENSITY LOG
~PARAMETER INFORMATION
#MNEM.UNIT          VALUE    DESCRIPTION
#----------   ------------   ------------------------------
 EKB .F         5137.0000:   Kelly bushing
 EGL .F         5127.0000:   Ground level
 EDF .F         5138.0000:   Drilling floor
 TD  .F         4080.0000:   Total depth
 DATE.        26-AUG-1984:   Date logged
 CLNT.            A2DTECH:   Client Code
 SL  . 43' FSL & 309' FEL:   Surface Location
 PD  .                 GL:   Permanent Datum
 EPD .F              5127:   Elevation Permanent Datum
 LMF .                 KB:   Log Measured From
 DMF .                 KB:   Drilling Measured From
 DD  .F              4080:   Depth driller
 DL  .F              4071:   Depth logger
 BLI .F              4069:   Bottom log interval
 TLI .F                26:   Top log interval
 CS1 .IN            8.625:   Casing size
 CBD1.       8.625 @ 516':   Casing driller 1
 CBL1.F               517:   Casing logger 1
 BS1 .IN            7.875:   Bit size
 DFT .            KCL MUD:   Type fluid in hole
 DFD .                  9:   Density
 DFV .                 38:   Viscosity
 DFPH.                8.5:   pH
 DFL .                 11:   Fluid loss
 MSS .           FLOWLINE:   Source of sample
 RMS .OHMM            3.7:   Rm
 MST .F                65:   Rm Meas. temp.
 RMF .OHMM            2.8:   Rmf
 MFST.F                65:   Rmf Meas. temp.
 RMC .OHMM            4.6:   Rmc
 MCST.F                65:   Rmc Meas. temp.
 MFSS.               CALC:   Source Rmf.
 RMB .OHMM           1.63:   Rm. at BHT
 BHT .F               148:   BHT.
 TCS .HRS               5:   Time Circ. stopped
 MRT .F               148:   Maximum recorded temp.
 LUN .               4082:   Logging unit number
 LUL .          ROOSEVELT:   Logging unit location
 ENGI.            FRANCIS:   Recorded By
 WITN.            JOHNSON:   Witnessed by
 ORIG.         2.5" PRINT:   Origin of data
 UWI .     49025109730000:   Unique Well ID
 DICO. A2D TECHNOLOGIES, INC.:   Digitizing Company
 DAPD.                 10:   Feet Above Permanent Datum
 BSD1.               4080:   Depth drilled with bit1
 MCSS.               CALC:   Source Rmc.
~OTHER INFORMATION
~A   DEPT       DT       TENS         GRR       SPR       RILD       RILM       RFOC       TENR       CALD       NPHI       RHOB       CORR       TEND   
# ...
  965.5000    94.9630  -100.5980   102.9930   -48.1850     7.1730     6.4460     7.4410   -89.0890     9.4910     0.2980     2.5270     0.0690  -101.4530
  966.0000    94.6810  -100.5980   102.1220   -48.4020     7.1730     6.5800     7.4400   -89.2130     9.4910     0.2980     2.5320     0.0920   -90.1860
  966.5000    94.2210  -100.5980   100.8750   -48.6060     7.1300     6.7140     7.4400   -89.3360     9.4910     0.2970     2.5460     0.0930   -80.3390
  967.0000    93.8140  -100.5980    99.5530   -48.8170     7.0880     6.8490     7.4430   -89.4600     9.4910     0.2970     2.5540     0.0840   -80.3390
  967.5000    93.6100  -100.5980    99.9330   -49.0290     7.0430     6.9840     7.4360   -89.5840     9.4910     0.2830     2.5570     0.0690   -80.3390
  968.0000    93.4050  -100.5980   100.0000   -49.2390     7.3140     7.1180     7.5890   -89.7070     9.4900     0.2740     2.5630     0.0530   -80.3390
  968.5000    93.2000  -100.5980   100.1290   -49.3860     7.6150     7.2530     7.7550   -89.8310     9.4900     0.2610     2.5670     0.0380   -80.3390
  969.0000    92.8570  -100.5980   100.4510   -49.2030     7.9160     7.3880     7.9200   -89.9550     9.4900     0.2520     2.5670     0.0290   -80.3390
  969.5000    92.1410  -100.5980    99.1010   -49.0460     8.2160     7.5230     8.0860   -90.0780     9.4900     0.2520     2.5600     0.0290   -80.3390
  970.0000    90.9120  -100.5980    96.5440   -48.8750     8.5170     7.7190     8.3590   -90.2020     9.4900     0.2540     2.5550     0.0330   -80.3390
  970.5000    89.6840  -100.5980    94.2710   -48.7080     8.8180     7.9590     8.7070   -90.3260     9.4900     0.2550     2.5530     0.0370   -80.3390
  971.0000    88.4550  -100.5980    91.8860   -48.5490     9.1190     8.1980     9.0550   -90.4490     9.4890     0.2570     2.5520     0.0460   -80.3390
  971.5000    87.4070  -100.5980    89.5280   -48.3750     9.4200     8.4380     9.4030   -90.5730     9.4890     0.2620     2.5560     0.0660   -80.3390
  972.0000    87.0490  -100.5980    87.3210   -48.2000     9.7200     8.6770     9.7920   -90.6970     9.4890     0.2670     2.5670     0.0750   -80.3390
  972.5000    86.9460  -100.5980    84.2320   -47.6640    10.0210     8.9170     9.8300   -90.8200     9.4890     0.2690     2.5800     0.0850   -80.3390
  973.0000    87.0040  -100.5980    83.5550   -47.2020    10.3450     9.1560     9.8720   -90.9440     9.4890     0.2640     2.5870     0.0940   -80.3390
  973.5000    87.1400  -100.4660    87.2110   -46.6620    10.1580     9.2690     9.9140   -91.0680     9.4890     0.2570     2.5880     0.1040   -80.3390
  974.0000    87.2770  -100.2050    90.0860   -46.9380    10.1200     9.4860     9.9570   -91.1910     9.4880     0.2620     2.5890     0.1130   -80.3390
  974.5000    87.4130   -99.9430    93.0900   -47.5070    10.0860     9.7920     9.9990   -91.3150     9.4880     0.2680     2.5910     0.1240   -80.3390
  975.0000    87.5500   -99.6810    93.3120   -48.0520    10.0520     9.7270    10.0410   -91.4390     9.4880     0.2790     2.5910     0.1200   -80.3390
  975.5000    87.7090   -99.4200    93.3120   -48.6020    10.0190     9.5580    10.0840   -91.5620     9.4880     0.2910     2.5850     0.1070   -80.3390
  976.0000    87.7090   -99.1580    93.1890   -48.9900     9.9850     9.3900    10.1480   -91.6860     9.4880     0.2920     2.5800     0.0940   -87.2060
  976.5000    87.7090   -98.8970    90.9480   -48.9100     9.9420     9.2220    10.1420   -91.8100     9.4880     0.2850     2.5740     0.0810   -93.9650
  977.0000    87.7090   -98.6350    88.0270   -48.8420     9.8940     9.0540    10.0770   -91.9330     9.4870     0.2700     2.5690     0.0690  -100.7250
  977.5000    87.7090   -98.3730    84.9050   -48.7560     9.8460     8.9380    10.0120   -92.0570     9.4870     0.2610     2.5600     0.0560  -107.4850
  978.0000    87.7090   -98.1120    83.0720   -48.6810     9.7980     8.9450     9.9470   -92.1810     9.4870     0.2580     2.5460     0.0440  -114.2450
  978.5000    87.7090   -97.8500    86.9750   -48.6020     9.7500     8.9530     9.8820   -92.3040     9.4870     0.2580     2.5320     0.0340  -120.2590
  979.0000    87.7090   -97.5880    91.0350   -48.5230     9.7020     8.9600     9.8180   -92.4280     9.4870     0.2600     2.5180     0.0230  -120.2590
  979.5000    87.7090   -97.3270    95.4220   -48.4450     9.6530     8.9680     9.7530   -92.5520     9.4870     0.2620     2.5120     0.0210  -120.2590
  980.0000    87.7090   -97.0650    95.8090   -48.3660     9.6150     8.9760     9.6880   -92.6750     9.4860     0.2650     2.5140     0.0260  -120.2590
  980.5000    87.7090   -96.8030    93.7500   -48.2870     9.3800     8.9830     9.6230   -92.7990     9.4860     0.2640     2.5150     0.0300  -120.2590
  981.0000    87.7910   -96.5420    91.6670   -48.2090     9.1830     8.9910     9.5580   -92.9220     9.4860     0.2640     2.5140     0.0340  -120.2590
  981.5000    87.9040   -96.2800    91.4270   -48.1300     8.9860     8.9980     9.4940   -93.0460     9.4860     0.2630     2.5130     0.0290  -120.2590
  982.0000    88.0180   -96.0190    93.0980   -48.0520     8.7900     9.0060     9.4290   -93.1700     9.4860     0.2630     2.5120     0.0240  -120.2590
  982.5000    88.1080   -95.7570    91.1380   -47.9740     8.5930     9.0130     9.3640   -93.2930     9.4860     0.2650     2.5160     0.0180  -120.2590
  983.0000    88.1080   -95.4950    86.6800   -47.8890     8.4580     9.0210     9.2990   -93.4170     9.4850     0.2660     2.5170     0.0150  -120.2590
  983.5000    88.1860   -95.2340    85.3370   -47.8880     8.5880     9.0280     9.1710   -93.5410     9.4850     0.2650     2.5160     0.0150  -120.2590
  984.0000    88.4790   -94.9720    85.6720   -48.0760     8.7280     9.0360     8.9850   -93.6640     9.4850     0.2720     2.5140     0.0150  -120.2590
  984.5000    88.7710   -94.7100    86.0790   -48.2590     8.8680     9.0430     8.8000   -93.7880     9.4850     0.2780     2.5120     0.0150  -120.2590
  985.0000    88.8210   -94.4490    86.5170   -48.4460     9.0090     9.0510     8.6140   -93.9120     9.4850     0.2760     2.5060     0.0200  -120.2590
  985.5000    88.6670   -94.1870    86.9560   -48.6370     9.1490     9.0580     8.9290   -94.0350     9.4850     0.2670     2.5030     0.0300  -120.2590
  986.0000    88.5140   -93.9260    87.3840   -48.8190     9.2900     9.0660     9.2440   -94.1590     9.4840     0.2620     2.5050     0.0400  -120.2590
  986.5000    88.3600   -93.6640    87.8200   -48.9990     9.4300     9.0740     9.5600   -94.2830     9.4840     0.2630     2.5150     0.0500  -120.2590
  987.0000    88.3070   -93.4020    88.2510   -48.9650     9.6150     9.0800     9.9730   -94.4060     9.4840     0.2640     2.5140     0.0620  -120.2590
  987.5000    88.3070   -93.1410    88.6760   -48.9180     9.4860     9.0890     9.9540   -94.5300     9.4850     0.2700     2.5120     0.0630  -108.2830
  988.0000    88.3070   -92.8790    89.1560   -48.8640     9.2990     9.0970     9.9250   -94.6540     9.4850     0.2680     2.5150     0.0510   -98.1440
  988.5000    88.0210   -92.6170    89.3130   -48.8180     9.1010     9.0440     9.8960   -94.7770     9.4860     0.2640     2.5220     0.0390   -88.0040
  989.0000    87.7090   -92.3560    89.1240   -48.7640     9.0740     8.8650     9.8670   -94.9010     9.4860     0.2640     2.5290     0.0360   -80.3390
  989.5000    87.9330   -92.0940    88.9120   -48.7190     9.0460     8.6870     9.8380   -95.0250     9.4870     0.2630     2.5350     0.0530   -80.3390
  990.0000    88.1610   -91.8330    88.7650   -48.6660     9.0180     8.5340     9.8090   -95.1480     9.4870     0.2660     2.5410     0.0630   -80.3390
  990.5000    88.3880   -91.5710    88.7400   -48.6060     8.9900     8.3960     9.7540   -95.2720     9.4880     0.2690     2.5440     0.0710   -80.3390
  991.0000    88.6540   -91.3090    90.8110   -48.3650     8.9620     8.2590     9.6610   -95.3960     9.4880     0.2660     2.5480     0.0760   -80.3390
