~VERSION INFORMATION
 VERS.                2.0:   CWLS LOG ASCII STANDARD - VERSION 2.0
 WRAP.                 NO:   ONE LINE PER DEPTH STEP
~WELL INFORMATION
#MNEM.UNIT      DATA TYPE    INFORMATION
#----------   ------------   ------------------------------
 STRT.F           29.5000:   START DEPTH
 STOP.F         4082.0000:   STOP DEPTH
 STEP.F            0.5000:   STEP LENGTH
 NULL.          -999.2500:   NO VALUE
 COMP. LAWRENCE ALLISON & ASSOCIATES:   COMPANY
 WELL. LAWRENCE "X" #88-3:   WELL
 FLD .           N P R #3:   FIELD
 LOC .       S3 T38N R78W:   LOCATION
 CNTY.            NATRONA:   COUNTY
 STAT.            WYOMING:   STATE
 CTRY. UNITED STATES OF AMERICA:   COUNTRY
 SRVC.      DRESSER ATLAS:   SERVICE COMPANY
 DATE.        26-AUG-1984:   LOGDATE
 API .     49025109730000:   API NUMBER
~CURVE INFORMATION
#MNEM.UNIT       API CODE    CURVE DESCRIPTION
#----------   ------------   ------------------------------
 DEPT.F                  :   
 DT  .US/F   60 520 00 00:   DELTA TIME
 TENS.LBS    60 635 01 00:   TENSION FROM SONIC
 GRR .GAPI   07 310 01 00:   GAMMA RAY FROM RESISTIVITY
 SPR .MV     07 010 01 00:   SPONTANEOUS POTENTIAL
 ILD.OHMM   07 120 46 00:   DEEP INDUCTION RESISTIVITY
 ILM.OHMM   07 120 44 00:   INDUCTION LOG MEDIUM RESISTIVITY
 RFOC.OHMM   07 220 04 00:   RESISTIVITY FOCUSED LOG RES.
 TENR.LBS    07 635 01 00:   TENSION FROM RESISTIVITY
 CALD.IN     45 280 60 00:   CALIPER FROM DENSITY LOG
 NPHI.DEC    42 890 03 00:   NEUTRON POROSITY SANDSTONE
 RHOB.G/C3   45 350 01 00:   BULK DENSITY
 CORR.G/C3   45 356 01 00:   DENSITY CORRECTION
 TEND.LBS    45 635 01 00:   TENSION FROM DENSITY LOG
~PARAMETER INFORMATION
#MNEM.UNIT          VALUE    DESCRIPTION
#----------   ------------   ------------------------------
 EKB .F         5137.0000:   Kelly bushing
 EGL .F         5127.0000:   Ground level
 EDF .F         5138.0000:   Drilling floor
 TD  .F         4080.0000:   Total depth
 DATE.        26-AUG-1984:   Date logged
 CLNT.            A2DTECH:   Client Code
 SL  . 43' FSL & 309' FEL:   Surface Location
 PD  .                 GL:   Permanent Datum
 EPD .F              5127:   Elevation Permanent Datum
 LMF .                 KB:   Log Measured From
 DMF .                 KB:   Drilling Measured From
 DD  .F              4080:   Depth driller
 DL  .F              4071:   Depth logger
 BLI .F              4069:   Bottom log interval
 TLI .F                26:   Top log interval
 CS1 .IN            8.625:   Casing size
 CBD1.       8.625 @ 516':   Casing driller 1
 CBL1.F               517:   Casing logger 1
 BS1 .IN            7.875:   Bit size
 DFT .            KCL MUD:   Type fluid in hole
 DFD .                  9:   Density
 DFV .                 38:   Viscosity
 DFPH.                8.5:   pH
 DFL .                 11:   Fluid loss
 MSS .           FLOWLINE:   Source of sample
 RMS .OHMM            3.7:   Rm
 MST .F                65:   Rm Meas. temp.
 RMF .OHMM            2.8:   Rmf
 MFST.F                65:   Rmf Meas. temp.
 RMC .OHMM            4.6:   Rmc
 MCST.F                65:   Rmc Meas. temp.
 MFSS.               CALC:   Source Rmf.
 RMB .OHMM           1.63:   Rm. at BHT
 BHT .F               148:   BHT.
 TCS .HRS               5:   Time Circ. stopped
 MRT .F               148:   Maximum recorded temp.
 LUN .               4082:   Logging unit number
 LUL .          ROOSEVELT:   Logging unit location
 ENGI.            FRANCIS:   Recorded By
 WITN.            JOHNSON:   Witnessed by
 ORIG.         2.5" PRINT:   Origin of data
 UWI .     49025109730000:   Unique Well ID
 DICO. A2D TECHNOLOGIES, INC.:   Digitizing Company
 DAPD.                 10:   Feet Above Permanent Datum
 BSD1.               4080:   Depth drilled with bit1
 MCSS.               CALC:   Source Rmc.
~OTHER INFORMATION
~A   DEPT       DT       TENS         GRR       SPR       RILD       RILM       RFOC       TENR       CALD       NPHI       RHOB       CORR       TEND   
# ...
 2629.5000    77.1510   -67.5250    82.4000   -26.9540    13.1240    11.5590    12.4370   -61.1330     8.4210     0.1960     2.5100     0.0970  -100.2990
 2630.0000    76.9240   -67.4660    82.4400   -26.5220    12.8710    11.5910    12.2710   -61.1330     8.4210     0.1950     2.5020     0.0900  -110.2790
 2630.5000    76.6210   -67.4080    84.2090   -26.1020    12.6180    11.6230    12.1050   -61.1330     8.4210     0.1960     2.4950     0.0820  -127.2460
 2631.0000    76.3170   -67.3490    87.4560   -25.8120    12.4240    11.6550    11.7600   -61.1330     8.4220     0.1970     2.4870     0.0770  -138.0420
 2631.5000    75.9560   -67.2900    86.1480   -25.7550    12.5440    11.6870    11.9450   -61.1330     8.4230     0.1970     2.4790     0.0850  -128.7880
 2632.0000    76.0250   -67.2310    84.0640   -26.2230    12.6850    11.7190    12.3560   -61.1330     8.4240     0.1980     2.4750     0.0920  -119.5340
 2632.5000    76.1090   -67.1720    82.1230   -27.0280    12.8270    11.7600    12.7670   -61.1330     8.4250     0.1980     2.4770     0.0980  -110.2790
 2633.0000    76.1670   -67.1130    80.3250   -27.7440    12.9690    11.7000    12.8880   -61.1330     8.4260     0.1980     2.4790     0.0810  -100.2990
 2633.5000    76.1920   -67.0550    83.8260   -28.4740    13.1100    11.6160    12.8880   -61.1330     8.4270     0.1960     2.4810     0.0670  -103.2310
 2634.0000    76.2170   -66.9960    88.4790   -29.2110    13.2520    11.5310    12.8880   -61.1330     8.4280     0.1930     2.4830     0.0530  -106.4120
 2634.5000    76.2430   -66.9370    89.1030   -29.9390    13.3680    11.4470    12.6850   -61.1330     8.4280     0.1950     2.4730     0.0350  -109.5930
 2635.0000    76.2680   -66.8780    86.3170   -30.6730    13.2020    11.3620    12.4740   -61.1330     8.4290     0.2010     2.4610    -0.0020  -112.7740
 2635.5000    76.2930   -66.8190    84.7760   -31.4040    13.0600    11.2770    12.2630   -61.1330     8.4300     0.2090     2.4490    -0.0070  -115.9560
 2636.0000    76.3190   -66.7600    85.2180   -32.1360    12.9190    11.1930    12.0520   -61.1330     8.4310     0.2070     2.4390     0.0090  -119.1370
 2636.5000    76.3440   -66.7010    85.8520   -32.8670    12.7770    11.1080    11.9050   -61.1330     8.4320     0.2000     2.4570     0.0220  -118.5260
 2637.0000    76.5000   -66.6430    86.5280   -33.6010    12.6350    11.0230    12.4750   -61.1330     8.4330     0.2000     2.4750     0.0360  -115.8470
 2637.5000    76.7530   -66.5840    88.0450   -34.3320    12.4940    10.9390    12.6540   -61.1330     8.4340     0.2000     2.4930     0.0500  -113.1680
 2638.0000    77.2590   -66.5250    91.0600   -35.0620    12.3290    10.8540    12.4090   -61.1330     8.4340     0.1990     2.5110     0.0630  -110.4900
 2638.5000    77.7650   -66.4660    93.5180   -35.8070    12.1430    10.7310    11.9300   -61.1330     8.4350     0.1950     2.5170     0.0780  -107.8110
 2639.0000    77.9480   -66.4070    95.8680   -36.4110    11.9560    10.9620    11.4120   -61.1330     8.4360     0.1920     2.5190     0.0780  -105.1320
 2639.5000    77.7500   -66.3480    96.4580   -36.7090    11.7700    11.3820    11.5530   -61.1330     8.4370     0.1890     2.5200     0.0640  -102.4530
 2640.0000    77.3160   -66.2900    96.3880   -36.8370    11.5470    11.8030    11.8360   -61.1330     8.4380     0.1880     2.5170     0.0530  -100.2990
 2640.5000    76.8830   -66.2310    95.1920   -37.0260    11.9200    12.2230    12.1180   -61.1330     8.4390     0.1770     2.5090     0.0320   -96.7180
 2641.0000    76.5170   -66.1720    93.2770   -37.2090    12.3850    12.6430    12.4000   -61.1330     8.4400     0.1720     2.5010     0.0200   -93.7240
 2641.5000    75.6530   -66.1130    90.2200   -37.3910    12.8490    13.0630    12.6830   -61.1330     8.4410     0.1700     2.4950     0.0230   -90.7300
 2642.0000    74.3040   -66.0540    86.3440   -37.5800    13.3680    13.2710    13.3860   -61.1330     8.4410     0.1690     2.5000     0.0270   -87.7360
 2642.5000    72.9550   -65.9950    83.8450   -37.5970    13.3680    12.9160    15.2030   -61.1330     8.4420     0.1680     2.5210     0.0440   -84.7420
 2643.0000    71.5740   -65.9370    80.9710   -37.6000    12.8880    12.5620    17.0200   -61.1330     8.4430     0.1710     2.5440     0.0660   -81.7480
 2643.5000    71.7380   -65.8780    80.4850   -37.5960    12.6540    12.2070    18.9310   -61.1330     8.4440     0.1830     2.5600     0.0740   -78.7540
 2644.0000    72.9800   -65.8190    81.3530   -37.6000    12.3500    11.8270    18.0090   -61.1330     8.4450     0.1940     2.5500     0.0820   -75.7600
 2644.5000    74.4980   -65.7600    86.0840   -37.6000    12.0830    11.4010    15.3970   -61.1330     8.4460     0.2030     2.5330     0.0660   -72.7660
 2645.0000    76.0160   -65.7010    90.3710   -37.6880    11.8150    10.9750    12.7850   -61.1330     8.4470     0.2030     2.5140     0.0490   -69.7720
 2645.5000    77.1510   -65.6420    95.3710   -37.8060    11.5480    10.5500    11.7010   -61.1330     8.4480     0.1910     2.5080     0.0320   -66.7780
 2646.0000    77.1510   -65.5830    99.9410   -37.9220    11.2810    10.1240    11.5470   -61.1330     8.4480     0.1930     2.5050     0.0160   -63.7840
 2646.5000    77.1510   -65.5250    99.8020   -38.0380    11.0140     9.9730    11.7940   -61.1330     8.4490     0.1950     2.5030     0.0280   -60.3790
 2647.0000    77.1510   -65.4660    99.2610   -38.1530    10.7470     9.8900    12.0310   -61.1330     8.4500     0.1910     2.5010     0.0390   -65.2590
 2647.5000    77.0620   -65.4070    97.7700   -38.2710    10.4790     9.7930    12.1990   -61.1330     8.4510     0.1860     2.5000     0.0510   -70.9160
 2648.0000    76.9350   -65.3480    94.7350   -38.3860    10.2120     9.6950    12.4080   -61.1330     8.4520     0.1850     2.4980     0.0640   -76.5730
 2648.5000    76.8090   -65.2890    90.9550   -38.5000     9.9450     9.5980    12.6540   -61.1330     8.4530     0.1870     2.5050     0.0630   -82.2290
 2649.0000    76.6820   -65.2300    89.4950   -38.6280     9.6780     9.5010    12.8880   -61.1330     8.4540     0.1890     2.5100     0.0580   -87.8860
 2649.5000    76.5540   -65.1720    90.9140   -38.7050     9.1380     9.2010    11.9750   -61.1330     8.4550     0.1990     2.5160     0.0530   -93.5420
 2650.0000    76.4170   -65.1130   114.0750   -39.1110     8.5150     8.5590    11.1850   -61.1330     8.4550     0.1960     2.5220     0.0470  -100.2990
 2650.5000    76.2780   -65.0540   111.8820   -39.7620     7.8930     7.9170    10.3960   -61.1330     8.4560     0.1920     2.5280     0.0440  -100.2990
 2651.0000    76.1390   -64.9950   110.6030   -40.3760     7.2700     7.2740     9.7920   -61.1330     8.4570     0.1900     2.5310     0.0410  -100.2990
 2651.5000    76.0010   -64.9360   109.0420   -40.9720     6.6470     6.6320     9.7920   -61.1330     8.4580     0.1950     2.5320     0.0380  -100.2990
 2652.0000    76.0720   -64.8770   108.8370   -41.6110     6.0240     5.9900     9.7920   -61.1330     8.4590     0.2080     2.5170     0.0350  -100.2990
 2652.5000    76.9060   -64.8190   117.0750   -42.0510     5.4010     5.3480     9.1140   -61.1330     8.4600     0.2220     2.4950     0.0320  -100.2990
 2653.0000    78.3850   -64.7600   127.2650   -42.1200     4.9730     5.1590     7.7300   -61.1330     8.4610     0.2410     2.4740     0.0340  -100.2990
 2653.5000    79.8640   -64.7010   136.5780   -41.6410     5.3880     5.7860     6.3460   -61.1330     8.4610     0.2390     2.4580     0.0450  -100.2990
 2654.0000    81.3430   -64.6420   141.5090   -41.3670     5.8380     6.9720     5.4500   -61.1330     8.4620     0.2280     2.4490     0.0540  -100.2990
 2654.5000    81.8800   -64.5830   138.7940   -40.4230     6.2880     8.1570     6.8490   -61.1330     8.4630     0.2050     2.4450     0.0480  -100.2990
 2655.0000    80.7370   -64.5240   118.6060   -38.8960     6.7390     9.3430     8.3050   -61.1330     8.4640     0.1870     2.4600     0.0430  -100.2990
