~VERSION INFORMATION
 VERS.                2.0:   CWLS LOG ASCII STANDARD - VERSION 2.0
 WRAP.                 NO:   ONE LINE PER DEPTH STEP
~WELL INFORMATION
#MNEM.UNIT      DATA TYPE    INFORMATION
#----------   ------------   ------------------------------
 STRT.F           29.5000:   START DEPTH
 STOP.F         4082.0000:   STOP DEPTH
 STEP.F            0.5000:   STEP LENGTH
 NULL.          -999.2500:   NO VALUE
 COMP. LAWRENCE ALLISON & ASSOCIATES:   COMPANY
 WELL. LAWRENCE "X" #88-3:   WELL
 FLD .           N P R #3:   FIELD
 LOC .       S3 T38N R78W:   LOCATION
 CNTY.            NATRONA:   COUNTY
 STAT.            WYOMING:   STATE
 CTRY. UNITED STATES OF AMERICA:   COUNTRY
 SRVC.      DRESSER ATLAS:   SERVICE COMPANY
 DATE.        26-AUG-1984:   LOGDATE
 API .     49025109730000:   API NUMBER
~CURVE INFORMATION
#MNEM.UNIT       API CODE    CURVE DESCRIPTION
#----------   ------------   ------------------------------
 DEPT.F                  :   
 DT  .US/F   60 520 00 00:   DELTA TIME
 TENS.LBS    60 635 01 00:   TENSION FROM SONIC
 GRR .GAPI   07 310 01 00:   GAMMA RAY FROM RESISTIVITY
 SPR .MV     07 010 01 00:   SPONTANEOUS POTENTIAL
 ILD.OHMM   07 120 46 00:   DEEP INDUCTION RESISTIVITY
 ILM.OHMM   07 120 44 00:   INDUCTION LOG MEDIUM RESISTIVITY
 RFOC.OHMM   07 220 04 00:   RESISTIVITY FOCUSED LOG RES.
 TENR.LBS    07 635 01 00:   TENSION FROM RESISTIVITY
 CALD.IN     45 280 60 00:   CALIPER FROM DENSITY LOG
 NPHI.DEC    42 890 03 00:   NEUTRON POROSITY SANDSTONE
 RHOB.G/C3   45 350 01 00:   BULK DENSITY
 CORR.G/C3   45 356 01 00:   DENSITY CORRECTION
 TEND.LBS    45 635 01 00:   TENSION FROM DENSITY LOG
~PARAMETER INFORMATION
#MNEM.UNIT          VALUE    DESCRIPTION
#----------   ------------   ------------------------------
 EKB .F         5137.0000:   Kelly bushing
 EGL .F         5127.0000:   Ground level
 EDF .F         5138.0000:   Drilling floor
 TD  .F         4080.0000:   Total depth
 DATE.        26-AUG-1984:   Date logged
 CLNT.            A2DTECH:   Client Code
 SL  . 43' FSL & 309' FEL:   Surface Location
 PD  .                 GL:   Permanent Datum
 EPD .F              5127:   Elevation Permanent Datum
 LMF .                 KB:   Log Measured From
 DMF .                 KB:   Drilling Measured From
 DD  .F              4080:   Depth driller
 DL  .F              4071:   Depth logger
 BLI .F              4069:   Bottom log interval
 TLI .F                26:   Top log interval
 CS1 .IN            8.625:   Casing size
 CBD1.       8.625 @ 516':   Casing driller 1
 CBL1.F               517:   Casing logger 1
 BS1 .IN            7.875:   Bit size
 DFT .            KCL MUD:   Type fluid in hole
 DFD .                  9:   Density
 DFV .                 38:   Viscosity
 DFPH.                8.5:   pH
 DFL .                 11:   Fluid loss
 MSS .           FLOWLINE:   Source of sample
 RMS .OHMM            3.7:   Rm
 MST .F                65:   Rm Meas. temp.
 RMF .OHMM            2.8:   Rmf
 MFST.F                65:   Rmf Meas. temp.
 RMC .OHMM            4.6:   Rmc
 MCST.F                65:   Rmc Meas. temp.
 MFSS.               CALC:   Source Rmf.
 RMB .OHMM           1.63:   Rm. at BHT
 BHT .F               148:   BHT.
 TCS .HRS               5:   Time Circ. stopped
 MRT .F               148:   Maximum recorded temp.
 LUN .               4082:   Logging unit number
 LUL .          ROOSEVELT:   Logging unit location
 ENGI.            FRANCIS:   Recorded By
 WITN.            JOHNSON:   Witnessed by
 ORIG.         2.5" PRINT:   Origin of data
 UWI .     49025109730000:   Unique Well ID
 DICO. A2D TECHNOLOGIES, INC.:   Digitizing Company
 DAPD.                 10:   Feet Above Permanent Datum
 BSD1.               4080:   Depth drilled with bit1
 MCSS.               CALC:   Source Rmc.
~OTHER INFORMATION
~A   DEPT       DT       TENS         GRR       SPR       RILD       RILM       RFOC       TENR       CALD       NPHI       RHOB       CORR       TEND   
# ...
 2395.5000    88.5260   -80.6770   109.1900   -47.9980     3.8490     3.9230     5.2040   -61.1330     8.6180     0.2780     2.5520     0.0600   -91.8700
 2396.0000    89.5420   -80.6770   112.4220   -48.1240     3.6230     3.7430     4.8430   -61.1330     8.6180     0.2730     2.5560     0.0660   -92.6530
 2396.5000    90.5580   -80.6770   115.5590   -48.3420     3.4380     3.5640     4.4820   -61.1330     8.6180     0.2700     2.5610     0.0570   -93.4360
 2397.0000    91.5740   -80.6770   118.3860   -48.7650     3.3930     3.3850     4.1410   -61.1330     8.6180     0.2760     2.5610     0.0370   -94.2190
 2397.5000    92.2910   -80.6770   118.0350   -49.2110     3.3240     3.3160     4.1410   -61.1330     8.6180     0.2820     2.5560     0.0190   -95.0020
 2398.0000    91.9670   -80.6770   116.5460   -49.4150     3.3370     3.2850     4.1410   -61.1330     8.6180     0.2880     2.5510     0.0040   -95.7850
 2398.5000    91.3320   -80.6770   115.0260   -49.2580     3.3630     3.2640     4.4070   -61.1330     8.6180     0.2950     2.5470     0.0290   -96.5680
 2399.0000    90.6970   -80.6770   113.8760   -49.1440     3.3860     3.3800     4.6890   -61.1330     8.6180     0.2900     2.5380     0.0590   -97.3510
 2399.5000    90.0140   -80.6770   114.4510   -49.0140     3.6170     3.5050     4.6530   -61.1330     8.6180     0.2860     2.5250     0.0840   -98.1350
 2400.0000    89.2510   -80.6770   114.9460   -48.8890     3.7790     3.6300     4.5810   -61.1330     8.6180     0.2800     2.5200     0.0830   -98.9180
 2400.5000    88.5060   -80.6770   115.5220   -48.7640     3.8480     3.7550     4.5380   -61.1330     8.6200     0.2800     2.5400     0.0660   -99.7010
 2401.0000    87.4620   -80.6770   116.1310   -48.6380     3.9060     3.8800     4.8530   -61.1330     8.5990     0.2770     2.5670     0.0550  -100.4840
 2401.5000    86.4420   -80.6770   116.5880   -48.5120     3.9630     4.0040     5.2540   -61.1330     8.5620     0.2720     2.5820     0.0550  -101.2670
 2402.0000    86.2020   -80.6770   118.6110   -48.3890     4.0210     4.1290     5.2030   -61.1330     8.5460     0.2670     2.5730     0.0540  -102.0500
 2402.5000    86.3150   -80.6770   121.5980   -48.2620     4.0790     4.2540     5.1300   -61.1330     8.5720     0.2620     2.5660     0.0530  -102.8330
 2403.0000    87.0270   -80.6770   124.9560   -48.2270     4.1370     4.3790     5.0570   -61.1330     8.5960     0.2730     2.5610     0.0510  -103.6160
 2403.5000    87.4050   -80.6770   125.6610   -48.2300     4.1940     4.5040     4.9830   -61.1330     8.6170     0.2820     2.5570     0.0480  -104.3990
 2404.0000    87.5750   -80.6770   118.6470   -48.2280     4.2520     4.6290     4.8830   -61.1330     8.6180     0.2940     2.5470     0.0510  -105.1820
 2404.5000    87.6480   -80.6770   113.5140   -48.2610     4.3260     4.7540     4.9380   -61.1330     8.6180     0.2900     2.5320     0.0180  -105.9650
 2405.0000    87.3560   -80.6770   108.5790   -48.3880     4.4510     4.8780     5.1600   -61.1330     8.6180     0.2730     2.5370     0.0040  -106.7480
 2405.5000    87.0650   -80.6770   110.0790   -48.5120     4.5920     5.0030     5.3830   -61.1330     8.6180     0.2620     2.5400     0.0110  -107.5310
 2406.0000    86.7730   -80.6770   112.7190   -48.6180     4.7710     5.1280     5.6060   -61.1330     8.6180     0.2640     2.5430     0.0210  -108.3140
 2406.5000    86.4820   -80.6770   115.8430   -48.6200     4.9500     5.2530     5.8290   -61.1330     8.6180     0.2660     2.5380     0.0320  -109.0970
 2407.0000    86.1910   -80.6770   116.7600   -48.6220     5.1290     5.3780     6.0510   -61.1330     8.6180     0.2680     2.5320     0.0420  -109.8800
 2407.5000    85.6110   -80.6770   114.6870   -48.6210     5.3090     5.5030     6.2740   -61.1330     8.6180     0.2700     2.5300     0.0320  -110.6630
 2408.0000    84.9310   -80.6770   112.5550   -48.6220     5.4880     5.6270     6.4970   -61.1330     8.6180     0.2720     2.5380     0.0240  -111.4460
 2408.5000    84.2510   -80.6770   113.2960   -48.6180     5.6540     5.7520     6.7900   -61.1330     8.6180     0.2670     2.5510     0.0260  -112.2290
 2409.0000    83.7540   -80.6770   116.2130   -48.6280     5.7520     5.8770     6.7470   -61.1330     8.6180     0.2640     2.5630     0.0290  -113.0120
 2409.5000    83.8810   -80.6770   120.1880   -48.5410     5.8440     6.0020     6.6840   -61.1330     8.6180     0.2720     2.5750     0.0320  -113.7950
 2410.0000    84.1950   -80.6770   121.8930   -48.3630     5.9360     6.0830     6.6210   -61.1330     8.6180     0.2800     2.5800     0.0350  -114.5790
 2410.5000    84.6030   -80.6770   122.9780   -48.1980     6.0830     6.0830     6.5450   -61.1330     8.6180     0.2810     2.5850     0.0420  -115.3620
 2411.0000    84.6490   -80.6770   120.8150   -48.0300     6.0570     6.0000     6.5870   -61.1330     8.6180     0.2670     2.5820     0.0500  -116.1450
 2411.5000    84.5470   -80.6770   118.7230   -47.8630     5.9930     5.9300     6.6390   -61.1330     8.6180     0.2550     2.5750     0.0580  -116.9280
 2412.0000    84.0580   -80.6770   117.8040   -47.6880     5.9290     5.8640     6.6920   -61.1330     8.6180     0.2450     2.5680     0.0440  -117.7110
 2412.5000    83.3270   -80.6770   118.2540   -47.5350     5.8640     5.8920     6.7440   -61.1330     8.6180     0.2520     2.5700     0.0300  -118.4940
 2413.0000    83.2890   -80.6770   119.8010   -47.3440     5.7580     5.9870     6.7900   -61.1330     8.6180     0.2630     2.5790     0.0160  -119.2770
 2413.5000    83.2430   -80.6770   122.8920   -47.1960     5.8220     6.0810     6.6400   -61.1330     8.6180     0.2740     2.5880     0.0180  -120.0600
 2414.0000    83.1970   -80.6770   124.1260   -47.1380     6.0080     6.1960     6.4270   -61.1330     8.6180     0.2790     2.5970     0.0430  -118.4100
 2414.5000    83.1500   -80.6770   123.9410   -48.2840     6.1940     6.2260     6.5480   -61.1330     8.6180     0.2710     2.6030     0.0590  -115.9270
 2415.0000    82.8250   -80.6770   123.0640   -48.6320     6.3800     6.3020     6.8490   -61.1330     8.6180     0.2640     2.6090     0.0770  -113.4440
 2415.5000    82.2300   -80.6770   120.7670   -48.6990     6.5660     6.3770     7.1510   -61.1330     8.6180     0.2580     2.6110     0.0970  -110.9610
 2416.0000    81.7330   -80.6770   119.2370   -48.7890     6.7520     6.4530     7.4530   -61.1330     8.6180     0.2500     2.6110     0.0910  -108.4780
 2416.5000    81.9320   -80.6770   117.9490   -48.8710     6.9150     6.5280     7.7180   -61.1330     8.6180     0.2470     2.6090     0.0840  -105.9950
 2417.0000    82.5650   -80.6770   120.0130   -49.0040     6.8060     6.6040     7.6510   -61.1330     8.6180     0.2430     2.6020     0.0710  -103.5120
 2417.5000    83.0850   -80.6770   122.0090   -48.7090     6.7090     6.6660     7.5910   -61.1330     8.6180     0.2410     2.5870     0.0510  -101.0300
 2418.0000    83.4490   -80.6770   123.9870   -48.0500     6.6120     6.5450     7.2900   -61.1330     8.6180     0.2380     2.5760     0.0420   -98.5470
 2418.5000    83.8130   -80.6770   126.1330   -47.4730     6.5150     6.3670     6.9230   -61.1330     8.6180     0.2580     2.5730     0.0430   -96.0640
 2419.0000    84.5150   -80.6770   124.6430   -46.8420     6.4170     6.0780     6.5560   -61.1330     8.6180     0.2780     2.5700     0.0430   -93.5810
 2419.5000    85.3210   -80.6770   123.1650   -46.7350     6.3200     5.7580     6.1890   -61.1330     8.6180     0.2920     2.5630     0.0370   -91.0980
 2420.0000    85.8210   -80.6770   122.8140   -46.9310     6.2230     5.7730     5.8640   -61.1330     8.6180     0.2920     2.5500     0.0290   -88.6150
 2420.5000    86.2290   -80.6770   122.2450   -47.0840     6.1260     5.7900     6.1310   -61.1330     8.6180     0.2800     2.5330     0.0210   -86.1330
 2421.0000    85.6710   -80.6770   119.4110   -47.2420     6.0830     5.8080     6.4980   -61.1330     8.6180     0.2650     2.5380     0.0180   -83.6500
