~VERSION INFORMATION
 VERS.                2.0:   CWLS LOG ASCII STANDARD - VERSION 2.0
 WRAP.                 NO:   ONE LINE PER DEPTH STEP
~WELL INFORMATION
#MNEM.UNIT      DATA TYPE    INFORMATION
#----------   ------------   ------------------------------
 STRT.F           29.5000:   START DEPTH
 STOP.F         4082.0000:   STOP DEPTH
 STEP.F            0.5000:   STEP LENGTH
 NULL.          -999.2500:   NO VALUE
 COMP. LAWRENCE ALLISON & ASSOCIATES:   COMPANY
 WELL. LAWRENCE "X" #88-3:   WELL
 FLD .           N P R #3:   FIELD
 LOC .       S3 T38N R78W:   LOCATION
 CNTY.            NATRONA:   COUNTY
 STAT.            WYOMING:   STATE
 CTRY. UNITED STATES OF AMERICA:   COUNTRY
 SRVC.      DRESSER ATLAS:   SERVICE COMPANY
 DATE.        26-AUG-1984:   LOGDATE
 API .     49025109730000:   API NUMBER
~CURVE INFORMATION
#MNEM.UNIT       API CODE    CURVE DESCRIPTION
#----------   ------------   ------------------------------
 DEPT.F                  :   
 DT  .US/F   60 520 00 00:   DELTA TIME
 TENS.LBS    60 635 01 00:   TENSION FROM SONIC
 GRR .GAPI   07 310 01 00:   GAMMA RAY FROM RESISTIVITY
 SPR .MV     07 010 01 00:   SPONTANEOUS POTENTIAL
 ILD.OHMM   07 120 46 00:   DEEP INDUCTION RESISTIVITY
 ILM.OHMM   07 120 44 00:   INDUCTION LOG MEDIUM RESISTIVITY
 RFOC.OHMM   07 220 04 00:   RESISTIVITY FOCUSED LOG RES.
 TENR.LBS    07 635 01 00:   TENSION FROM RESISTIVITY
 CALD.IN     45 280 60 00:   CALIPER FROM DENSITY LOG
 NPHI.DEC    42 890 03 00:   NEUTRON POROSITY SANDSTONE
 RHOB.G/C3   45 350 01 00:   BULK DENSITY
 CORR.G/C3   45 356 01 00:   DENSITY CORRECTION
 TEND.LBS    45 635 01 00:   TENSION FROM DENSITY LOG
~PARAMETER INFORMATION
#MNEM.UNIT          VALUE    DESCRIPTION
#----------   ------------   ------------------------------
 EKB .F         5137.0000:   Kelly bushing
 EGL .F         5127.0000:   Ground level
 EDF .F         5138.0000:   Drilling floor
 TD  .F         4080.0000:   Total depth
 DATE.        26-AUG-1984:   Date logged
 CLNT.            A2DTECH:   Client Code
 SL  . 43' FSL & 309' FEL:   Surface Location
 PD  .                 GL:   Permanent Datum
 EPD .F              5127:   Elevation Permanent Datum
 LMF .                 KB:   Log Measured From
 DMF .                 KB:   Drilling Measured From
 DD  .F              4080:   Depth driller
 DL  .F              4071:   Depth logger
 BLI .F              4069:   Bottom log interval
 TLI .F                26:   Top log interval
 CS1 .IN            8.625:   Casing size
 CBD1.       8.625 @ 516':   Casing driller 1
 CBL1.F               517:   Casing logger 1
 BS1 .IN            7.875:   Bit size
 DFT .            KCL MUD:   Type fluid in hole
 DFD .                  9:   Density
 DFV .                 38:   Viscosity
 DFPH.                8.5:   pH
 DFL .                 11:   Fluid loss
 MSS .           FLOWLINE:   Source of sample
 RMS .OHMM            3.7:   Rm
 MST .F                65:   Rm Meas. temp.
 RMF .OHMM            2.8:   Rmf
 MFST.F                65:   Rmf Meas. temp.
 RMC .OHMM            4.6:   Rmc
 MCST.F                65:   Rmc Meas. temp.
 MFSS.               CALC:   Source Rmf.
 RMB .OHMM           1.63:   Rm. at BHT
 BHT .F               148:   BHT.
 TCS .HRS               5:   Time Circ. stopped
 MRT .F               148:   Maximum recorded temp.
 LUN .               4082:   Logging unit number
 LUL .          ROOSEVELT:   Logging unit location
 ENGI.            FRANCIS:   Recorded By
 WITN.            JOHNSON:   Witnessed by
 ORIG.         2.5" PRINT:   Origin of data
 UWI .     49025109730000:   Unique Well ID
 DICO. A2D TECHNOLOGIES, INC.:   Digitizing Company
 DAPD.                 10:   Feet Above Permanent Datum
 BSD1.               4080:   Depth drilled with bit1
 MCSS.               CALC:   Source Rmc.
~OTHER INFORMATION
~A   DEPT       DT       TENS         GRR       SPR       RILD       RILM       RFOC       TENR       CALD       NPHI       RHOB       CORR       TEND   
# ...
 3097.5000    76.5660   -80.6770    99.3330   -41.5330     5.6290     5.7030     6.1960   -61.1330     8.5000     0.2000     2.5900     0.0870   -94.8340
 3098.0000    77.1510   -80.6770   100.2270   -41.5360     5.5510     5.5530     6.0820   -61.1330     8.5000     0.2010     2.5850     0.0850   -95.6420
 3098.5000    78.0550   -80.6770   101.0160   -41.5350     5.3450     5.4030     5.9550   -61.1330     8.5000     0.2100     2.5790     0.0710   -96.4500
 3099.0000    78.8860   -80.6770   101.8830   -41.5360     5.1610     5.1590     5.8290   -61.1330     8.5000     0.2170     2.5780     0.0580   -97.2580
 3099.5000    79.7410   -80.6770   103.0870   -41.5350     4.9730     5.1930     5.7020   -61.1330     8.5000     0.2220     2.5810     0.0550   -98.0660
 3100.0000    79.4930   -80.6770   106.3940   -41.5370     5.0970     5.2830     5.5510   -61.1330     8.5000     0.2090     2.5880     0.0560   -98.8740
 3100.5000    79.2370   -80.6770   108.2500   -41.5320     5.2230     5.3730     5.5510   -61.1330     8.5000     0.1940     2.5950     0.0580   -99.6820
 3101.0000    77.9910   -80.6770   110.3970   -41.5700     5.3490     5.4640     5.6190   -61.1330     8.5000     0.1800     2.5930     0.0640  -103.2930
 3101.5000    76.1700   -80.6770   112.2730   -41.6340     5.4740     5.5540     6.1930   -61.1330     8.5000     0.1610     2.5900     0.0730  -116.0180
 3102.0000    74.1630   -80.6770   114.5950   -41.6930     5.6000     5.6450     7.3380   -61.1330     8.5000     0.1660     2.5900     0.0810  -117.5080
 3102.5000    73.5660   -80.6770   113.7590   -41.7520     5.7450     5.7360     8.6140   -61.1330     8.5000     0.1830     2.5860     0.0890  -113.3810
 3103.0000    74.2510   -80.6770   109.7840   -41.8120     5.7180     5.6910     8.2390   -61.1330     8.5000     0.1990     2.5780     0.0980  -109.2540
 3103.5000    76.2910   -80.6770   107.3160   -41.8720     5.6540     5.5180     7.1910   -61.1330     8.5000     0.2140     2.5700     0.0940  -105.1280
 3104.0000    78.3470   -80.6770   107.3050   -41.9230     5.3790     5.2830     6.1430   -61.1330     8.5000     0.2160     2.5610     0.0840  -101.0010
 3104.5000    78.8530   -80.6770   109.1410   -41.9750     5.0370     5.0480     5.3510   -61.1330     8.5000     0.2180     2.5530     0.0630   -96.8740
 3105.0000    79.3630   -80.6770   110.5250   -42.2040     4.6950     4.8130     5.2670   -61.1330     8.5000     0.2220     2.5450     0.0420   -92.7470
 3105.5000    79.8730   -80.6770   110.5930   -42.3270     4.4200     4.5790     5.1590   -61.1330     8.5000     0.2240     2.5370     0.0350   -88.6200
 3106.0000    80.3820   -80.6770   111.0210   -42.3230     4.3010     4.3750     5.0730   -61.1330     8.5000     0.2260     2.5280     0.0380   -84.4930
 3106.5000    80.9960   -80.6770   114.3970   -42.3290     4.1820     4.2960     4.9070   -61.1330     8.5000     0.2270     2.5280     0.0400   -80.3660
 3107.0000    81.7330   -80.6770   118.0570   -42.2410     4.0630     4.2270     4.7080   -61.1330     8.5000     0.2260     2.5320     0.0420   -76.2390
 3107.5000    81.4030   -80.6770   117.0910   -41.8900     3.9640     4.1570     4.7680   -61.1330     8.5000     0.2220     2.5360     0.0440   -72.1130
 3108.0000    81.1120   -80.6770   115.3210   -41.9480     3.8960     4.0870     4.8440   -61.1330     8.5000     0.2330     2.5370     0.0460   -67.9860
 3108.5000    81.0380   -80.6770   113.2730   -41.9200     3.8270     4.0180     4.9730   -61.1330     8.5000     0.2460     2.5350     0.0480   -63.8590
 3109.0000    81.3350   -80.6770   112.0730   -41.9330     3.7590     3.9480     4.9240   -61.1330     8.5000     0.2460     2.5320     0.0500   -60.3790
 3109.5000    82.1310   -80.6770   111.5710   -41.9310     3.6900     3.8780     4.7580   -61.1330     8.5000     0.2470     2.5260     0.0480   -60.3790
 3110.0000    82.9810   -80.6770   110.7970   -41.9220     3.6210     3.8080     4.5920   -61.1330     8.5000     0.2420     2.5190     0.0430   -60.3790
 3110.5000    83.4520   -80.6770   110.0300   -41.8390     3.5530     3.7390     4.4560   -61.1330     8.5000     0.2420     2.5090     0.0380   -60.3790
 3111.0000    83.7250   -80.6770   109.4560   -41.7270     3.5120     3.6690     4.4280   -61.1330     8.5000     0.2400     2.5140     0.0150   -60.3790
 3111.5000    83.7250   -80.6770   107.8380   -41.6320     3.4920     3.6380     4.3750   -61.1330     8.5000     0.2380     2.5220    -0.0150   -60.3790
 3112.0000    83.5000   -80.6770   106.2850   -41.5850     3.4590     3.6170     4.3750   -61.1330     8.5000     0.2380     2.5250    -0.0040   -60.3790
 3112.5000    83.2020   -80.6770   105.7470   -42.1450     3.4480     3.5960     4.4100   -61.1330     8.5000     0.2380     2.5280     0.0210   -59.1320
 3113.0000    82.9050   -80.6770   105.1960   -42.6850     3.4640     3.5770     4.4420   -61.1330     8.5000     0.2390     2.5310     0.0430   -56.5870
 3113.5000    82.6070   -80.6770   105.7870   -43.2790     3.4810     3.6040     4.4740   -61.1330     8.5000     0.2420     2.5340     0.0650   -54.0420
 3114.0000    82.3310   -80.6770   106.3820   -43.4950     3.4990     3.6290     4.5060   -61.1330     8.5000     0.2470     2.5380     0.0670   -51.4970
 3114.5000    82.6580   -80.6770   106.5650   -43.1990     3.5160     3.6430     4.6220   -61.1330     8.5000     0.2510     2.5380     0.0580   -48.9520
 3115.0000    82.9280   -80.6770   106.0120   -42.9710     3.5340     3.6650     4.6100   -61.1330     8.5000     0.2510     2.5380     0.0590   -46.4070
 3115.5000    83.5790   -80.6770   107.2840   -42.7170     3.5510     3.6870     4.5560   -61.1330     8.5000     0.2490     2.5370     0.0770   -43.8620
 3116.0000    84.1620   -80.6770   109.0410   -42.4730     3.5680     3.7100     4.5030   -61.1330     8.5000     0.2440     2.5350     0.0740   -41.3170
 3116.5000    84.2290   -80.6770   110.0300   -42.2280     3.7710     4.0220     4.4560   -61.1330     8.5000     0.2310     2.5300     0.0500   -40.9180
 3117.0000    83.3270   -80.6770   109.4350   -41.9820     4.1530     4.3690     4.3750   -61.1330     8.5000     0.2190     2.5270     0.0440   -41.6890
 3117.5000    82.4900   -80.6770   112.8810   -41.7370     4.5340     4.7160     4.3750   -61.1330     8.5000     0.2060     2.5340     0.0880   -42.4610
 3118.0000    80.1470   -80.6770   116.6420   -41.4920     4.9160     5.0630     5.0630   -61.1330     8.5000     0.1940     2.5450     0.1010   -43.2320
 3118.5000    77.0880   -80.6770   114.7920   -41.2460     5.2970     5.4100     5.9390   -61.1330     8.5000     0.1860     2.5550     0.1040   -44.0030
 3119.0000    74.7010   -80.6770   111.5440   -41.0000     5.6790     5.7570     6.8140   -61.1330     8.5000     0.1880     2.5660     0.0770   -44.7740
 3119.5000    73.9640   -80.6770   103.8090   -40.7570     6.0600     6.1040     7.5080   -61.1330     8.5000     0.1890     2.5720     0.0600   -45.5450
 3120.0000    74.1860   -80.6770    99.5030   -40.5050     6.4420     6.4510     7.7180   -61.1330     8.5000     0.1910     2.5720     0.0470   -46.3160
 3120.5000    74.3820   -80.6770    96.0370   -40.2690     6.5450     6.5450     7.7860   -61.1330     8.5000     0.1910     2.5720     0.0330   -47.0880
 3121.0000    74.5790   -80.6770    92.6630   -40.0280     6.4270     6.4270     7.8470   -61.1330     8.5000     0.1920     2.5720     0.0220   -47.8590
 3121.5000    74.7750   -80.6770    92.1760   -40.2360     6.2320     6.3830     8.0060   -61.1330     8.5000     0.1950     2.5720     0.0190   -48.6300
 3122.0000    74.9600   -80.6770    92.9850   -40.6080     6.0650     6.3450     7.6980   -61.1330     8.5000     0.2020     2.5660     0.0160   -49.4010
 3122.5000    76.0360   -80.6770    93.6340   -40.9690     5.8920     6.3100     7.1980   -61.1330     8.5000     0.2090     2.5600     0.0370   -50.1720
 3123.0000    77.0560   -80.6770    94.3700   -41.3200     5.7110     6.0490     6.6980   -61.1330     8.5000     0.2170     2.5540     0.0530   -50.9440
