~VERSION INFORMATION
 VERS.                2.0:   CWLS LOG ASCII STANDARD - VERSION 2.0
 WRAP.                 NO:   ONE LINE PER DEPTH STEP
~WELL INFORMATION
#MNEM.UNIT      DATA TYPE    INFORMATION
#----------   ------------   ------------------------------
 STRT.F           29.5000:   START DEPTH
 STOP.F         4082.0000:   STOP DEPTH
 STEP.F            0.5000:   STEP LENGTH
 NULL.          -999.2500:   NO VALUE
 COMP. LAWRENCE ALLISON & ASSOCIATES:   COMPANY
 WELL. LAWRENCE "X" #88-3:   WELL
 FLD .           N P R #3:   FIELD
 LOC .       S3 T38N R78W:   LOCATION
 CNTY.            NATRONA:   COUNTY
 STAT.            WYOMING:   STATE
 CTRY. UNITED STATES OF AMERICA:   COUNTRY
 SRVC.      DRESSER ATLAS:   SERVICE COMPANY
 DATE.        26-AUG-1984:   LOGDATE
 API .     49025109730000:   API NUMBER
~CURVE INFORMATION
#MNEM.UNIT       API CODE    CURVE DESCRIPTION
#----------   ------------   ------------------------------
 DEPT.F                  :   
 DT  .US/F   60 520 00 00:   DELTA TIME
 TENS.LBS    60 635 01 00:   TENSION FROM SONIC
 GRR .GAPI   07 310 01 00:   GAMMA RAY FROM RESISTIVITY
 SPR .MV     07 010 01 00:   SPONTANEOUS POTENTIAL
 ILD.OHMM   07 120 46 00:   DEEP INDUCTION RESISTIVITY
 ILM.OHMM   07 120 44 00:   INDUCTION LOG MEDIUM RESISTIVITY
 RFOC.OHMM   07 220 04 00:   RESISTIVITY FOCUSED LOG RES.
 TENR.LBS    07 635 01 00:   TENSION FROM RESISTIVITY
 CALD.IN     45 280 60 00:   CALIPER FROM DENSITY LOG
 NPHI.DEC    42 890 03 00:   NEUTRON POROSITY SANDSTONE
 RHOB.G/C3   45 350 01 00:   BULK DENSITY
 CORR.G/C3   45 356 01 00:   DENSITY CORRECTION
 TEND.LBS    45 635 01 00:   TENSION FROM DENSITY LOG
~PARAMETER INFORMATION
#MNEM.UNIT          VALUE    DESCRIPTION
#----------   ------------   ------------------------------
 EKB .F         5137.0000:   Kelly bushing
 EGL .F         5127.0000:   Ground level
 EDF .F         5138.0000:   Drilling floor
 TD  .F         4080.0000:   Total depth
 DATE.        26-AUG-1984:   Date logged
 CLNT.            A2DTECH:   Client Code
 SL  . 43' FSL & 309' FEL:   Surface Location
 PD  .                 GL:   Permanent Datum
 EPD .F              5127:   Elevation Permanent Datum
 LMF .                 KB:   Log Measured From
 DMF .                 KB:   Drilling Measured From
 DD  .F              4080:   Depth driller
 DL  .F              4071:   Depth logger
 BLI .F              4069:   Bottom log interval
 TLI .F                26:   Top log interval
 CS1 .IN            8.625:   Casing size
 CBD1.       8.625 @ 516':   Casing driller 1
 CBL1.F               517:   Casing logger 1
 BS1 .IN            7.875:   Bit size
 DFT .            KCL MUD:   Type fluid in hole
 DFD .                  9:   Density
 DFV .                 38:   Viscosity
 DFPH.                8.5:   pH
 DFL .                 11:   Fluid loss
 MSS .           FLOWLINE:   Source of sample
 RMS .OHMM            3.7:   Rm
 MST .F                65:   Rm Meas. temp.
 RMF .OHMM            2.8:   Rmf
 MFST.F                65:   Rmf Meas. temp.
 RMC .OHMM            4.6:   Rmc
 MCST.F                65:   Rmc Meas. temp.
 MFSS.               CALC:   Source Rmf.
 RMB .OHMM           1.63:   Rm. at BHT
 BHT .F               148:   BHT.
 TCS .HRS               5:   Time Circ. stopped
 MRT .F               148:   Maximum recorded temp.
 LUN .               4082:   Logging unit number
 LUL .          ROOSEVELT:   Logging unit location
 ENGI.            FRANCIS:   Recorded By
 WITN.            JOHNSON:   Witnessed by
 ORIG.         2.5" PRINT:   Origin of data
 UWI .     49025109730000:   Unique Well ID
 DICO. A2D TECHNOLOGIES, INC.:   Digitizing Company
 DAPD.                 10:   Feet Above Permanent Datum
 BSD1.               4080:   Depth drilled with bit1
 MCSS.               CALC:   Source Rmc.
~OTHER INFORMATION
~A   DEPT       DT       TENS         GRR       SPR       RILD       RILM       RFOC       TENR       CALD       NPHI       RHOB       CORR       TEND   
# ...
 1199.5000    90.2300   -80.6770    93.0250   -48.0740     7.9170     7.0430     8.1510   -81.0140     9.5240     0.2830     2.5220     0.0630   -61.8380
 1200.0000    90.2990   -80.6770    92.8730   -48.2570     8.0060     7.0330     8.2060   -81.0140     9.5240     0.2850     2.5160     0.0790   -72.3550
 1200.5000    90.1630   -80.6770   100.7000   -48.6360     7.9990     7.0230     8.2900   -81.0140     9.5240     0.2790     2.5100     0.0780   -92.7940
 1201.0000    90.0490   -80.6770    98.7740   -48.9480     7.9910     7.0140     8.2760   -81.0140     9.5240     0.2710     2.5060     0.0570  -100.2990
 1201.5000    89.9350   -80.6770    94.2560   -49.3040     7.9820     7.0040     8.1520   -81.0140     9.5230     0.2630     2.5100     0.0210  -100.2990
 1202.0000    89.9000   -80.6770    89.7080   -49.3550     7.9730     6.9940     8.0280   -81.0140     9.5230     0.2650     2.5140     0.0130  -100.2990
 1202.5000    90.3690   -80.6770    89.8570   -49.2330     7.9650     6.9840     7.9040   -81.0140     9.5220     0.2770     2.5180     0.0180  -100.2990
 1203.0000    91.2950   -80.6770    90.7490   -49.1340     7.9560     6.9740     7.7180   -81.0140     9.5220     0.2890     2.5180     0.0320  -100.2990
 1203.5000    91.6670   -80.6770    92.0450   -49.0310     7.9480     6.9640     7.7310   -81.0140     9.5210     0.2870     2.5150     0.0500  -100.2990
 1204.0000    91.7660   -80.6770    91.7770   -48.9260     7.9390     6.9550     7.7570   -81.0140     9.5210     0.2830     2.5070     0.0490  -100.2990
 1204.5000    91.4590   -80.6770    89.4470   -48.8250     7.9300     6.9450     7.7830   -81.0140     9.5200     0.2780     2.5020     0.0390  -100.2990
 1205.0000    91.0560   -80.6770    87.2640   -48.7220     7.9220     6.9340     7.8090   -81.0140     9.5200     0.2760     2.5050     0.0170  -100.2990
 1205.5000    90.4980   -80.6770    89.0860   -48.6180     7.9130     6.9270     7.8350   -81.0140     9.5190     0.2800     2.5110     0.0040  -100.2990
 1206.0000    90.4310   -80.6770    90.3620   -48.5160     7.9050     6.9150     7.8610   -81.0140     9.5190     0.2880     2.5190     0.0170  -100.2990
 1206.5000    90.3580   -80.6770    90.8910   -48.4120     7.8960     7.0050     8.0470   -81.0140     9.5180     0.2970     2.5390     0.0320  -100.2990
 1207.0000    90.2850   -80.6770    89.2440   -48.3040     7.8880     7.0950     8.2350   -81.0140     9.5180     0.2970     2.5440     0.0500  -100.2990
 1207.5000    90.2120   -80.6770    89.3770   -48.2770     7.8790     7.1850     8.3370   -81.0140     9.5170     0.2960     2.5380     0.0590  -100.2990
 1208.0000    90.1390   -80.6770    90.8560   -48.4550     7.8700     7.2750     8.3890   -81.0140     9.5170     0.2880     2.5340     0.0540  -100.2990
 1208.5000    90.0660   -80.6770    90.3440   -48.6360     7.8610     7.3160     8.4410   -81.0140     9.5160     0.2790     2.5400     0.0530  -100.2990
 1209.0000    89.9930   -80.6770    89.7280   -48.8150     7.8360     7.3310     8.4920   -81.0140     9.5160     0.2790     2.5470     0.0440   -93.9920
 1209.5000    89.9190   -80.6770    89.5800   -49.0000     7.8090     7.3470     8.5440   -81.0140     9.5150     0.2790     2.5540     0.0300   -83.7720
 1210.0000    89.6170   -80.6770    90.7520   -49.0110     7.7810     7.3630     8.5960   -81.0140     9.5150     0.2710     2.5520     0.0350   -73.5530
 1210.5000    89.3030   -80.6770    89.3790   -48.9800     7.7530     7.3780     8.6470   -81.0140     9.5140     0.2630     2.5510     0.0490   -63.3330
 1211.0000    89.3490   -80.6770    89.4890   -48.9460     7.7260     7.3940     8.6990   -81.0140     9.5140     0.2680     2.5460     0.0620   -60.3790
 1211.5000    89.3890   -80.6770    91.7350   -48.9150     7.7190     7.4090     8.7510   -81.0140     9.5140     0.2710     2.5330     0.0620   -60.3790
 1212.0000    89.4280   -80.6770    93.2410   -48.8820     7.7500     7.4250     8.8030   -81.0140     9.5130     0.2700     2.5200     0.0630   -60.3790
 1212.5000    89.4680   -80.6770    93.3200   -48.8500     7.7820     7.4410     8.8540   -81.0140     9.5130     0.2720     2.5110     0.0640   -60.3790
 1213.0000    89.5020   -80.6770    93.2160   -48.8190     7.8150     7.3290     8.9360   -81.0140     9.5120     0.2760     2.5150     0.0470   -60.3790
 1213.5000    89.7340   -80.6770    93.5310   -48.7870     7.8470     7.2180     8.7700   -81.0140     9.5120     0.2800     2.5200     0.0220   -60.3790
 1214.0000    90.0490   -80.6770    91.0830   -48.7560     7.8800     7.1070     8.3800   -81.0140     9.5110     0.2840     2.5270     0.0120   -60.3790
 1214.5000    90.3640   -80.6770    88.9930   -48.7190     7.9120     6.9960     7.9900   -81.0140     9.5110     0.2880     2.5420     0.0050   -60.3790
 1215.0000    90.6790   -80.6770    88.5450   -48.7000     7.9450     6.9150     7.7150   -81.0140     9.5100     0.2910     2.5470     0.0470   -60.3790
 1215.5000    90.9940   -80.6770    88.7480   -48.6420     7.9780     6.9150     7.7050   -81.0140     9.5100     0.2810     2.5390     0.0580   -60.3790
 1216.0000    91.0960   -80.6770    90.5480   -48.6450     8.0100     6.9150     7.6950   -81.0140     9.5090     0.2710     2.5280     0.0340   -60.3790
 1216.5000    91.0960   -80.6770    92.1840   -48.6600     8.0430     6.9150     7.6850   -81.0140     9.5090     0.2640     2.5180     0.0090   -60.3790
 1217.0000    91.0960   -80.6770    93.9190   -49.3610     8.0750     6.9050     7.6750   -81.0140     9.5080     0.2690     2.5140     0.0180   -60.3790
 1217.5000    91.0960   -80.6770    91.5350   -49.4760     8.1080     6.8960     7.6640   -81.0140     9.5080     0.2750     2.5130     0.0270   -60.3790
 1218.0000    91.0960   -80.6770    90.0620   -49.8510     8.1420     6.8870     7.6540   -81.0140     9.5070     0.2710     2.5190     0.0330   -60.3790
 1218.5000    91.0960   -80.6770    90.3110   -49.7830     8.1560     6.8770     7.6440   -81.0140     9.5070     0.2650     2.5280     0.0260   -60.3790
 1219.0000    91.0960   -80.6770    91.2830   -49.7940     8.1880     6.8680     7.6340   -81.0140     9.5060     0.2650     2.5290     0.0170   -60.3790
 1219.5000    91.0960   -80.6770    92.8290   -49.8370     8.2150     6.8590     7.6240   -81.0140     9.5060     0.2690     2.5280     0.0240   -60.3790
 1220.0000    91.0960   -80.6770    95.0130   -49.4880     8.2420     6.8500     7.6140   -81.0140     9.5050     0.2810     2.5300     0.0430   -60.3790
 1220.5000    91.3810   -80.6770    96.9110   -49.4020     8.2710     6.8410     7.6040   -81.0140     9.5050     0.2930     2.5400     0.0610   -60.3790
 1221.0000    91.3750   -80.6770    98.9810   -49.3710     8.2990     6.8320     7.5930   -81.0140     9.5040     0.2930     2.5500     0.0810   -60.3790
 1221.5000    91.1610   -80.6770    99.4100   -49.3440     8.3260     6.8230     7.5780   -81.0140     9.5040     0.2900     2.5560     0.0780   -60.3790
 1222.0000    90.9480   -80.6770    97.1970   -49.2960     8.3540     6.8140     7.6280   -81.0140     9.5030     0.2780     2.5470     0.0610   -60.3790
 1222.5000    90.7350   -80.6770    93.5780   -49.2630     8.3820     6.8050     7.7300   -81.0140     9.5030     0.2700     2.5390     0.0440   -60.3790
 1223.0000    90.4980   -80.6770    94.0510   -49.2220     8.4100     6.7900     7.8320   -81.0140     9.5020     0.2690     2.5370     0.0460   -60.3790
 1223.5000    90.3460   -80.6770    94.7670   -49.1850     8.4380     6.8340     7.9330   -81.0140     9.5020     0.2680     2.5360     0.0480   -60.3790
 1224.0000    90.1750   -80.6770    94.5290   -49.1460     8.4660     6.9610     8.0350   -81.0140     9.5010     0.2720     2.5360     0.0490   -60.3790
 1224.5000    89.6440   -80.6770    94.3770   -49.1090     8.4930     7.0880     8.1360   -81.0140     9.5010     0.2840     2.5370     0.0200   -60.3790
 1225.0000    88.8250   -80.6770    92.3860   -49.0660     8.5210     7.2150     8.2380   -81.0140     9.5000     0.2970     2.5380     0.0140   -60.3790
