~VERSION INFORMATION
 VERS.                2.0:   CWLS LOG ASCII STANDARD - VERSION 2.0
 WRAP.                 NO:   ONE LINE PER DEPTH STEP
~WELL INFORMATION
#MNEM.UNIT      DATA TYPE    INFORMATION
#----------   ------------   ------------------------------
 STRT.F           29.5000:   START DEPTH
 STOP.F         4082.0000:   STOP DEPTH
 STEP.F            0.5000:   STEP LENGTH
 NULL.          -999.2500:   NO VALUE
 COMP. LAWRENCE ALLISON & ASSOCIATES:   COMPANY
 WELL. LAWRENCE "X" #88-3:   WELL
 FLD .           N P R #3:   FIELD
 LOC .       S3 T38N R78W:   LOCATION
 CNTY.            NATRONA:   COUNTY
 STAT.            WYOMING:   STATE
 CTRY. UNITED STATES OF AMERICA:   COUNTRY
 SRVC.      DRESSER ATLAS:   SERVICE COMPANY
 DATE.        26-AUG-1984:   LOGDATE
 API .     49025109730000:   API NUMBER
~CURVE INFORMATION
#MNEM.UNIT       API CODE    CURVE DESCRIPTION
#----------   ------------   ------------------------------
 DEPT.F                  :   
 DT  .US/F   60 520 00 00:   DELTA TIME
 TENS.LBS    60 635 01 00:   TENSION FROM SONIC
 GRR .GAPI   07 310 01 00:   GAMMA RAY FROM RESISTIVITY
 SPR .MV     07 010 01 00:   SPONTANEOUS POTENTIAL
 ILD.OHMM   07 120 46 00:   DEEP INDUCTION RESISTIVITY
 ILM.OHMM   07 120 44 00:   INDUCTION LOG MEDIUM RESISTIVITY
 RFOC.OHMM   07 220 04 00:   RESISTIVITY FOCUSED LOG RES.
 TENR.LBS    07 635 01 00:   TENSION FROM RESISTIVITY
 CALD.IN     45 280 60 00:   CALIPER FROM DENSITY LOG
 NPHI.DEC    42 890 03 00:   NEUTRON POROSITY SANDSTONE
 RHOB.G/C3   45 350 01 00:   BULK DENSITY
 CORR.G/C3   45 356 01 00:   DENSITY CORRECTION
 TEND.LBS    45 635 01 00:   TENSION FROM DENSITY LOG
~PARAMETER INFORMATION
#MNEM.UNIT          VALUE    DESCRIPTION
#----------   ------------   ------------------------------
 EKB .F         5137.0000:   Kelly bushing
 EGL .F         5127.0000:   Ground level
 EDF .F         5138.0000:   Drilling floor
 TD  .F         4080.0000:   Total depth
 DATE.        26-AUG-1984:   Date logged
 CLNT.            A2DTECH:   Client Code
 SL  . 43' FSL & 309' FEL:   Surface Location
 PD  .                 GL:   Permanent Datum
 EPD .F              5127:   Elevation Permanent Datum
 LMF .                 KB:   Log Measured From
 DMF .                 KB:   Drilling Measured From
 DD  .F              4080:   Depth driller
 DL  .F              4071:   Depth logger
 BLI .F              4069:   Bottom log interval
 TLI .F                26:   Top log interval
 CS1 .IN            8.625:   Casing size
 CBD1.       8.625 @ 516':   Casing driller 1
 CBL1.F               517:   Casing logger 1
 BS1 .IN            7.875:   Bit size
 DFT .            KCL MUD:   Type fluid in hole
 DFD .                  9:   Density
 DFV .                 38:   Viscosity
 DFPH.                8.5:   pH
 DFL .                 11:   Fluid loss
 MSS .           FLOWLINE:   Source of sample
 RMS .OHMM            3.7:   Rm
 MST .F                65:   Rm Meas. temp.
 RMF .OHMM            2.8:   Rmf
 MFST.F                65:   Rmf Meas. temp.
 RMC .OHMM            4.6:   Rmc
 MCST.F                65:   Rmc Meas. temp.
 MFSS.               CALC:   Source Rmf.
 RMB .OHMM           1.63:   Rm. at BHT
 BHT .F               148:   BHT.
 TCS .HRS               5:   Time Circ. stopped
 MRT .F               148:   Maximum recorded temp.
 LUN .               4082:   Logging unit number
 LUL .          ROOSEVELT:   Logging unit location
 ENGI.            FRANCIS:   Recorded By
 WITN.            JOHNSON:   Witnessed by
 ORIG.         2.5" PRINT:   Origin of data
 UWI .     49025109730000:   Unique Well ID
 DICO. A2D TECHNOLOGIES, INC.:   Digitizing Company
 DAPD.                 10:   Feet Above Permanent Datum
 BSD1.               4080:   Depth drilled with bit1
 MCSS.               CALC:   Source Rmc.
~OTHER INFORMATION
~A   DEPT       DT       TENS         GRR       SPR       RILD       RILM       RFOC       TENR       CALD       NPHI       RHOB       CORR       TEND   
# ...
 1901.5000    91.5320   -80.6770   117.3950   -45.6640     7.3060     7.4010     8.8500   -95.6520     9.2480     0.3430     2.5030     0.0120  -120.2590
 1902.0000    91.2950   -80.6770   116.7240   -45.5090     7.4640     7.4610     8.7980   -95.4850     9.2480     0.3350     2.4960     0.0020  -120.2590
 1902.5000    91.2950   -80.6770   116.1300   -45.9380     7.6100     7.5200     8.7740   -95.3190     9.2480     0.3260     2.4970     0.0200  -120.2590
 1903.0000    91.2950   -80.6770   115.4090   -46.4360     7.7560     7.5790     9.2120   -95.1520     9.2480     0.3180     2.4990     0.0350  -120.2590
 1903.5000    91.2950   -80.6770   114.8800   -46.9500     7.9030     7.6380     9.5970   -94.9850     9.2480     0.3100     2.5030     0.0470  -120.2590
 1904.0000    91.2950   -80.6770   114.1280   -47.4550     8.0490     7.6970     9.9730   -94.8180     9.2480     0.3120     2.5060     0.0430  -120.2590
 1904.5000    91.2950   -80.6770   113.6000   -47.8340     8.1950     7.7560     9.9470   -94.6510     9.2480     0.3150     2.5100     0.0390  -120.2590
 1905.0000    91.3460   -80.6770   113.5150   -47.7440     8.3410     7.8150     9.9210   -94.4850     9.2480     0.3190     2.5050     0.0350  -120.2590
 1905.5000    91.4560   -80.6770   119.5660   -47.5250     8.4870     7.8740     9.8950   -94.3180     9.2480     0.3230     2.5020     0.0310  -120.2590
 1906.0000    91.5650   -80.6770   125.4930   -47.4280     8.6140     7.9320     9.8690   -94.1510     9.2480     0.3280     2.5050     0.0260  -120.2590
 1906.5000    91.6750   -80.6770   126.1840   -47.2420     8.6450     7.9910     9.8440   -93.9840     9.2480     0.3250     2.5120     0.0220  -120.2590
 1907.0000    91.7850   -80.6770   121.9290   -46.9570     8.6860     8.0500     9.8180   -93.8180     9.2480     0.3160     2.5160     0.0210  -120.2590
 1907.5000    91.8920   -80.6770   121.3390   -46.6880     8.7270     8.1390     9.7920   -93.6510     9.2480     0.3080     2.5210     0.0280  -120.2590
 1908.0000    91.8180   -80.6770   120.7780   -46.3950     8.7740     8.1140     9.8600   -93.4840     9.2480     0.3080     2.5250     0.0360  -120.2590
 1908.5000    91.7450   -80.6770   118.9310   -46.2630     8.6080     7.9500     9.9730   -93.3170     9.2480     0.3120     2.5290     0.0430  -120.2590
 1909.0000    91.6720   -80.6770   116.3720   -46.3160     8.4150     7.7850     9.8860   -93.1500     9.2480     0.3090     2.5290     0.0510  -120.2590
 1909.5000    91.5980   -80.6770   115.4550   -46.3430     8.2210     7.5820     9.5890   -92.9840     9.2480     0.3080     2.5270     0.0530  -120.2590
 1910.0000    91.5250   -80.6770   116.0170   -46.3780     8.0270     7.5900     9.2930   -92.8170     9.2480     0.3040     2.5250     0.0560  -120.2590
 1910.5000    91.4520   -80.6770   116.3660   -46.4120     7.7180     7.6050     8.9360   -92.6500     9.2480     0.3000     2.5230     0.0590  -120.2590
 1911.0000    91.3790   -80.6770   116.7850   -46.4440     7.7570     7.6210     9.2380   -92.4830     9.2480     0.2970     2.5210     0.0620  -120.2590
 1911.5000    91.3060   -80.6770   117.1630   -46.4780     7.8540     7.6360     9.6190   -92.3160     9.2480     0.2920     2.5200     0.0580  -120.2590
 1912.0000    91.2330   -80.6770   117.6380   -46.5120     7.9510     7.6510     9.9730   -92.1500     9.2480     0.2950     2.5250     0.0430  -120.2590
 1912.5000    91.1600   -80.6770   117.2120   -46.5450     8.0480     7.6670     9.8890   -91.9830     9.2480     0.2980     2.5310     0.0290  -120.2590
 1913.0000    91.0960   -80.6770   116.2460   -46.5790     8.1450     7.6820     9.7640   -91.8160     9.2480     0.2980     2.5370     0.0420  -120.2590
 1913.5000    91.0960   -80.6770   115.3780   -46.6120     8.2420     7.6980     9.6390   -91.6490     9.2480     0.2970     2.5440     0.0540  -120.2590
 1914.0000    91.0960   -80.6770   114.5870   -46.6490     8.3390     7.7130     9.4400   -91.4820     9.2480     0.3130     2.5470     0.0610  -120.2590
 1914.5000    91.0960   -80.6770   113.5470   -46.6530     8.4350     7.7290     9.5220   -91.3160     9.2480     0.3090     2.5450     0.0660  -120.2590
 1915.0000    91.0960   -80.6770   113.2630   -46.6540     8.5320     7.7440     9.7270   -91.1490     9.2480     0.3010     2.5430     0.0720  -120.2590
 1915.5000    91.1790   -80.6770   114.0650   -46.6520     8.6290     7.7600     9.9320   -90.9820     9.2480     0.3010     2.5530     0.0770  -120.2590
 1916.0000    91.2780   -80.6770   118.9390   -46.6560     8.7740     7.7750    10.1580   -90.8150     9.2480     0.3010     2.5710     0.0820  -120.2590
 1916.5000    91.3770   -80.6770   120.2620   -46.6180     8.7230     7.7910     9.9700   -90.6480     9.2480     0.3030     2.5660     0.0890  -120.2590
 1917.0000    91.4770   -80.6770   120.7360   -46.5390     8.6250     7.8060     9.7600   -90.4820     9.2480     0.3070     2.5540     0.0860  -120.2590
 1917.5000    91.5760   -80.6770   119.7610   -46.4650     8.5260     7.8220     9.5510   -90.3150     9.2480     0.3110     2.5450     0.0720  -120.2590
 1918.0000    91.6750   -80.6770   117.0520   -46.3900     8.4270     7.8370     9.3410   -90.1480     9.2480     0.3060     2.5400     0.0600  -120.2590
 1918.5000    91.7740   -80.6770   116.4090   -46.3160     8.3290     7.8530     9.1320   -89.9810     9.2480     0.3040     2.5340     0.0450  -120.2590
 1919.0000    91.8730   -80.6770   116.4960   -46.2420     8.2300     7.8680     8.9360   -89.8150     9.2480     0.3070     2.5320     0.0370  -120.2590
 1919.5000    91.9720   -80.6770   117.6590   -46.1650     8.1320     7.8840     8.9360   -89.6480     9.2480     0.3090     2.5250     0.0300  -120.2590
 1920.0000    92.0710   -80.6770   118.6130   -46.0940     8.0330     7.8990     9.1290   -89.4810     9.2480     0.3110     2.5240     0.0330  -120.2590
 1920.5000    92.1700   -80.6770   119.6270   -46.0140     8.0060     7.9150     9.3450   -89.3140     9.2480     0.3130     2.5270     0.0610  -120.2590
 1921.0000    92.2690   -80.6770   120.6380   -45.9450     8.1160     7.9300     9.5880   -89.1470     9.2480     0.3120     2.5350     0.0930  -120.2590
 1921.5000    92.2240   -80.6770   121.2150   -45.8890     8.2320     7.9460     9.8510   -88.9810     9.2480     0.3110     2.5360     0.0810  -120.2590
 1922.0000    92.1390   -80.6770   121.6480   -46.1460     8.3480     7.9620    10.1580   -88.8140     9.2480     0.3040     2.5320     0.0650  -120.2590
 1922.5000    92.0530   -80.6770   122.1380   -46.4170     8.4640     7.9770    10.0900   -88.6470     9.2480     0.3040     2.5280     0.0660  -120.2590
 1923.0000    91.9680   -80.6770   122.1000   -46.6940     8.5800     7.9920    10.0100   -88.4800     9.2480     0.3040     2.5310     0.0690  -120.2590
 1923.5000    91.8920   -80.6770   120.8240   -46.9680     8.7740     8.0060     9.9290   -88.3130     9.2480     0.3080     2.5320     0.0400  -120.2590
 1924.0000    92.0910   -80.6770   119.3690   -47.0500     8.7080     7.8870     9.8490   -88.1470     9.2480     0.3120     2.5240     0.0400  -120.2590
 1924.5000    92.2690   -80.6770   117.3830   -47.0490     8.5130     7.7800     9.7680   -87.9800     9.2480     0.3130     2.5160     0.0400  -120.2590
 1925.0000    92.4470   -80.6770   115.3770   -46.9920     8.3170     7.6730     9.6880   -87.8130     9.2480     0.3140     2.5150     0.0430  -120.2590
 1925.5000    92.6250   -80.6770   113.2250   -46.8440     8.1220     7.5660     9.6070   -87.6460     9.2480     0.3200     2.5280     0.0460  -116.8440
 1926.0000    92.8030   -80.6770   113.3010   -46.7010     7.9260     7.4590     9.5270   -87.4790     9.2480     0.3300     2.5420     0.0480  -113.9830
 1926.5000    92.9810   -80.6770   117.3220   -46.5580     7.8610     7.3520     9.4460   -87.3130     9.2480     0.3440     2.5370     0.0500  -111.1220
 1927.0000    93.1590   -80.6770   120.9340   -46.4130     7.8610     7.1730     9.3660   -87.1460     9.2480     0.3390     2.5240     0.0430  -108.2610
