~VERSION INFORMATION
 VERS.                2.0:   CWLS LOG ASCII STANDARD - VERSION 2.0
 WRAP.                 NO:   ONE LINE PER DEPTH STEP
~WELL INFORMATION
#MNEM.UNIT      DATA TYPE    INFORMATION
#----------   ------------   ------------------------------
 STRT.F           29.5000:   START DEPTH
 STOP.F         4082.0000:   STOP DEPTH
 STEP.F            0.5000:   STEP LENGTH
 NULL.          -999.2500:   NO VALUE
 COMP. LAWRENCE ALLISON & ASSOCIATES:   COMPANY
 WELL. LAWRENCE "X" #88-3:   WELL
 FLD .           N P R #3:   FIELD
 LOC .       S3 T38N R78W:   LOCATION
 CNTY.            NATRONA:   COUNTY
 STAT.            WYOMING:   STATE
 CTRY. UNITED STATES OF AMERICA:   COUNTRY
 SRVC.      DRESSER ATLAS:   SERVICE COMPANY
 DATE.        26-AUG-1984:   LOGDATE
 API .     49025109730000:   API NUMBER
~CURVE INFORMATION
#MNEM.UNIT       API CODE    CURVE DESCRIPTION
#----------   ------------   ------------------------------
 DEPT.F                  :   
 DT  .US/F   60 520 00 00:   DELTA TIME
 TENS.LBS    60 635 01 00:   TENSION FROM SONIC
 GRR .GAPI   07 310 01 00:   GAMMA RAY FROM RESISTIVITY
 SPR .MV     07 010 01 00:   SPONTANEOUS POTENTIAL
 ILD.OHMM   07 120 46 00:   DEEP INDUCTION RESISTIVITY
 ILM.OHMM   07 120 44 00:   INDUCTION LOG MEDIUM RESISTIVITY
 RFOC.OHMM   07 220 04 00:   RESISTIVITY FOCUSED LOG RES.
 TENR.LBS    07 635 01 00:   TENSION FROM RESISTIVITY
 CALD.IN     45 280 60 00:   CALIPER FROM DENSITY LOG
 NPHI.DEC    42 890 03 00:   NEUTRON POROSITY SANDSTONE
 RHOB.G/C3   45 350 01 00:   BULK DENSITY
 CORR.G/C3   45 356 01 00:   DENSITY CORRECTION
 TEND.LBS    45 635 01 00:   TENSION FROM DENSITY LOG
~PARAMETER INFORMATION
#MNEM.UNIT          VALUE    DESCRIPTION
#----------   ------------   ------------------------------
 EKB .F         5137.0000:   Kelly bushing
 EGL .F         5127.0000:   Ground level
 EDF .F         5138.0000:   Drilling floor
 TD  .F         4080.0000:   Total depth
 DATE.        26-AUG-1984:   Date logged
 CLNT.            A2DTECH:   Client Code
 SL  . 43' FSL & 309' FEL:   Surface Location
 PD  .                 GL:   Permanent Datum
 EPD .F              5127:   Elevation Permanent Datum
 LMF .                 KB:   Log Measured From
 DMF .                 KB:   Drilling Measured From
 DD  .F              4080:   Depth driller
 DL  .F              4071:   Depth logger
 BLI .F              4069:   Bottom log interval
 TLI .F                26:   Top log interval
 CS1 .IN            8.625:   Casing size
 CBD1.       8.625 @ 516':   Casing driller 1
 CBL1.F               517:   Casing logger 1
 BS1 .IN            7.875:   Bit size
 DFT .            KCL MUD:   Type fluid in hole
 DFD .                  9:   Density
 DFV .                 38:   Viscosity
 DFPH.                8.5:   pH
 DFL .                 11:   Fluid loss
 MSS .           FLOWLINE:   Source of sample
 RMS .OHMM            3.7:   Rm
 MST .F                65:   Rm Meas. temp.
 RMF .OHMM            2.8:   Rmf
 MFST.F                65:   Rmf Meas. temp.
 RMC .OHMM            4.6:   Rmc
 MCST.F                65:   Rmc Meas. temp.
 MFSS.               CALC:   Source Rmf.
 RMB .OHMM           1.63:   Rm. at BHT
 BHT .F               148:   BHT.
 TCS .HRS               5:   Time Circ. stopped
 MRT .F               148:   Maximum recorded temp.
 LUN .               4082:   Logging unit number
 LUL .          ROOSEVELT:   Logging unit location
 ENGI.            FRANCIS:   Recorded By
 WITN.            JOHNSON:   Witnessed by
 ORIG.         2.5" PRINT:   Origin of data
 UWI .     49025109730000:   Unique Well ID
 DICO. A2D TECHNOLOGIES, INC.:   Digitizing Company
 DAPD.                 10:   Feet Above Permanent Datum
 BSD1.               4080:   Depth drilled with bit1
 MCSS.               CALC:   Source Rmc.
~OTHER INFORMATION
~A   DEPT       DT       TENS         GRR       SPR       RILD       RILM       RFOC       TENR       CALD       NPHI       RHOB       CORR       TEND   
# ...
  497.5000  -999.2500  -999.2500    62.1620  -999.2500  -999.2500  -999.2500  -999.2500  -999.2500  -999.2500     0.3480     2.0620    -0.6320  -999.2500
  498.0000  -999.2500  -999.2500    62.3820  -999.2500  -999.2500  -999.2500  -999.2500  -999.2500  -999.2500     0.3630     2.0820    -0.6200  -999.2500
  498.5000  -999.2500  -999.2500    63.3980  -999.2500  -999.2500  -999.2500  -999.2500  -999.2500  -999.2500     0.3580     2.1010    -0.6240   -47.2220
  499.0000  -999.2500  -999.2500    66.6450  -999.2500  -999.2500  -999.2500  -999.2500  -999.2500  -999.2500     0.3510     2.0990    -0.6290   -43.4960
  499.5000  -999.2500  -999.2500    66.2560  -999.2500  -999.2500  -999.2500  -999.2500  -999.2500  -999.2500     0.3440     2.0970    -0.6110   -39.7700
  500.0000  -999.2500  -999.2500    61.9380  -999.2500  -999.2500  -999.2500  -999.2500  -999.2500  -999.2500     0.3370     2.1020    -0.5690   -36.0440
  500.5000  -999.2500  -999.2500    58.0110  -999.2500  -999.2500  -999.2500  -999.2500  -999.2500  -999.2500     0.3300     2.1060    -0.5480   -32.3180
  501.0000  -999.2500  -999.2500    58.5320  -999.2500  -999.2500  -999.2500  -999.2500  -999.2500  -999.2500     0.3270     2.1120    -0.5480   -28.5910
  501.5000  -999.2500  -999.2500    62.5980  -999.2500  -999.2500  -999.2500  -999.2500  -999.2500  -999.2500     0.3170     2.1200    -0.5600   -24.8650
  502.0000  -999.2500  -999.2500    62.5980  -999.2500  -999.2500  -999.2500  -999.2500  -999.2500  -999.2500     0.3280     2.1220    -0.5920   -23.0020
  502.5000  -999.2500  -999.2500    62.5580  -999.2500  -999.2500  -999.2500  -999.2500  -999.2500  -999.2500     0.3450     2.1170    -0.6230   -19.2760
  503.0000  -999.2500  -999.2500    62.6020  -999.2500  -999.2500  -999.2500  -999.2500  -999.2500  -999.2500     0.3410     2.1200    -0.6280   -15.5500
  503.5000  -999.2500  -999.2500    62.6050  -999.2500  -999.2500  -999.2500  -999.2500  -999.2500  -999.2500     0.3340     2.1220    -0.6230   -11.8240
  504.0000  -999.2500  -999.2500    62.6170  -999.2500  -999.2500  -999.2500  -999.2500  -999.2500  -999.2500     0.3240     2.1190    -0.6170    -8.0980
  504.5000  -999.2500  -999.2500    62.5570  -999.2500  -999.2500  -999.2500  -999.2500  -999.2500  -999.2500     0.3290     2.1040    -0.6330    -4.3720
  505.0000  -999.2500  -999.2500    63.1670  -999.2500  -999.2500  -999.2500  -999.2500  -999.2500  -999.2500     0.3350     2.1010    -0.6510    -0.4990
  505.5000  -999.2500  -999.2500    64.7750  -999.2500  -999.2500  -999.2500  -999.2500  -999.2500  -999.2500     0.3420     2.1010    -0.6470    -0.4990
  506.0000  -999.2500  -999.2500    66.2890  -999.2500  -999.2500  -999.2500  -999.2500  -999.2500  -999.2500     0.3490     2.1110    -0.6320    -0.4990
  506.5000  -999.2500  -999.2500    67.7970  -999.2500  -999.2500  -999.2500  -999.2500  -999.2500  -999.2500     0.3450     2.1200    -0.6190    -0.4990
  507.0000  -999.2500  -999.2500    69.5420  -999.2500  -999.2500  -999.2500  -999.2500  -999.2500  -999.2500     0.3380     2.1260    -0.6070    -0.4990
  507.5000  -999.2500  -999.2500    70.0170  -999.2500  -999.2500  -999.2500  -999.2500  -999.2500  -999.2500     0.3490     2.1280    -0.6110    -0.4990
  508.0000  -999.2500  -999.2500    67.6620  -999.2500  -999.2500  -999.2500  -999.2500  -999.2500  -999.2500     0.3640     2.1310    -0.5990    -0.4990
  508.5000  -999.2500  -999.2500    66.2250  -999.2500  -999.2500  -999.2500  -999.2500  -999.2500  -999.2500     0.3790     2.1410    -0.5830    -0.4990
  509.0000  -999.2500  -999.2500    65.9270  -999.2500  -999.2500  -999.2500  -999.2500  -999.2500  -999.2500     0.3940     2.1500    -0.5830    -0.4990
  509.5000  -999.2500  -999.2500    67.3180  -999.2500  -999.2500  -999.2500  -999.2500  -999.2500  -999.2500     0.4090     2.1610    -0.6010    -0.4990
  510.0000  -999.2500  -999.2500    68.6120  -999.2500  -999.2500  -999.2500  -999.2500  -999.2500  -999.2500     0.3840     2.1700    -0.6170    -0.4990
  510.5000  -999.2500  -999.2500    69.9910  -999.2500  -999.2500  -999.2500  -999.2500  -999.2500  -999.2500     0.3440     2.1940    -0.6110    -0.4990
  511.0000  -999.2500  -999.2500    71.2840  -999.2500  -999.2500  -999.2500  -999.2500  -999.2500  -999.2500     0.3210     2.2170    -0.5900    -0.4990
  511.5000  -999.2500  -999.2500    72.6990  -999.2500  -999.2500  -999.2500  -999.2500  -999.2500  -999.2500     0.3250     2.2360    -0.5790    -0.4990
  512.0000  -999.2500   -62.1130    73.2080  -999.2500  -999.2500  -999.2500  -999.2500  -999.2500  -999.2500     0.3290     2.2490    -0.5760    -0.4990
  512.5000  -999.2500   -62.4820    71.4050  -999.2500  -999.2500  -999.2500  -999.2500  -999.2500  -999.2500     0.3350     2.2620    -0.5770    -0.4990
  513.0000   134.3270   -62.8500    70.6040  -999.2500  -999.2500  -999.2500  -999.2500  -999.2500  -999.2500     0.3220     2.2740    -0.5810    -0.4990
  513.5000   131.3830   -63.2180    71.7510  -999.2500  -999.2500  -999.2500  -999.2500   -61.1330  -999.2500     0.3250     2.2850    -0.6300    -0.4990
  514.0000   128.1470   -63.5870    70.8680    36.9620  -999.2500  -999.2500  -999.2500   -89.9600  -999.2500     0.3310     2.3100    -0.7740    -0.4990
  514.5000   128.1470   -63.9550    67.3380    28.8300  -999.2500  -999.2500  -999.2500   -96.6080  -999.2500     0.3390     2.3500    -0.9620    -0.4990
  515.0000   128.9110   -64.3230    66.9520    20.6980  -999.2500  -999.2500     0.8380   -90.2710  -999.2500     0.3220     2.4980    -0.3990    -0.4990
  515.5000   130.7370   -64.6110    73.4230    12.0080  -999.2500  -999.2500     2.0870   -83.9340  -999.2500     0.3070     2.5470     0.0780    -0.4990
  516.0000   133.7250   -64.8760    79.7460    -4.1340  -999.2500  -999.2500     3.3360   -77.5970  -999.2500     0.2880     2.5670     0.1700    -0.4990
  516.5000   133.9240   -65.2440    84.2220   -13.8400     1.9550     2.7680     4.6220   -71.2600  -999.2500     0.2820     2.5240     0.1630    -0.4990
  517.0000   130.7400   -65.6120    86.9310   -22.3020     1.7900     2.8710     5.0650   -68.0910  -999.2500     0.2870     2.4850     0.1490    -0.4990
  517.5000   128.3470   -65.9810    85.8860   -26.9830     1.6880     3.4480     5.6540   -61.1330  -999.2500     0.2970     2.4870     0.1370    -0.4990
  518.0000   112.1040   -66.3490    84.0570   -31.3420     4.9790     4.1090     5.3860   -61.2730  -999.2500     0.3090     2.4870     0.1180    -0.4990
  518.5000   100.8270   -66.7170    82.1870   -36.3900     7.3270     4.7640     5.1310   -61.4280  -999.2500     0.3200     2.4840     0.0960    -0.4990
  519.0000    98.2670   -67.0860    81.6850   -38.3470     9.9730     5.4180     4.9550   -61.5830  -999.2500     0.3110     2.4790     0.0750    -0.4990
  519.5000    99.0280   -67.4540    82.3870   -39.7730     9.1010     5.9730     4.9230   -61.7370  -999.2500     0.3030     2.4870     0.0790   -38.8220
  520.0000    99.6610   -67.8220    83.8890   -41.1410     9.1270     5.9100     4.8830   -61.8920  -999.2500     0.2990     2.5050     0.0830   -63.1240
  520.5000    99.5980   -68.1910    85.6540   -42.5320     5.9270     5.6080     4.8710   -62.0470  -999.2500     0.3090     2.5140     0.0680   -69.4610
  521.0000    99.5410   -68.5590    86.0800   -43.9870     4.4560     5.2540     4.8560   -62.2020  -999.2500     0.3220     2.5060     0.0430   -75.7980
  521.5000    99.4840   -68.9270    85.7750   -44.7730     4.4560     5.2340     4.8410   -62.3570  -999.2500     0.3150     2.4950     0.0400   -79.9230
  522.0000    99.4270   -69.2950    85.5980   -44.7740     4.7690     5.2090     4.8260   -62.5120  -999.2500     0.2930     2.4960     0.0370   -78.4530
  522.5000    99.3700   -69.6640    88.2970   -44.8900     5.0650     5.1850     4.8110   -62.6670  -999.2500     0.2860     2.5050     0.0330   -76.9840
  523.0000    99.3130   -70.0320    91.9510   -44.9690     5.3610     5.1590     4.7950   -62.8210  -999.2500     0.2880     2.5120     0.0310   -75.5140
