~VERSION INFORMATION
 VERS.                2.0:   CWLS LOG ASCII STANDARD - VERSION 2.0
 WRAP.                 NO:   ONE LINE PER DEPTH STEP
~WELL INFORMATION
#MNEM.UNIT      DATA TYPE    INFORMATION
#----------   ------------   ------------------------------
 STRT.F           29.5000:   START DEPTH
 STOP.F         4082.0000:   STOP DEPTH
 STEP.F            0.5000:   STEP LENGTH
 NULL.          -999.2500:   NO VALUE
 COMP. LAWRENCE ALLISON & ASSOCIATES:   COMPANY
 WELL. LAWRENCE "X" #88-3:   WELL
 FLD .           N P R #3:   FIELD
 LOC .       S3 T38N R78W:   LOCATION
 CNTY.            NATRONA:   COUNTY
 STAT.            WYOMING:   STATE
 CTRY. UNITED STATES OF AMERICA:   COUNTRY
 SRVC.      DRESSER ATLAS:   SERVICE COMPANY
 DATE.        26-AUG-1984:   LOGDATE
 API .     49025109730000:   API NUMBER
~CURVE INFORMATION
#MNEM.UNIT       API CODE    CURVE DESCRIPTION
#----------   ------------   ------------------------------
 DEPT.F                  :   
 DT  .US/F   60 520 00 00:   DELTA TIME
 TENS.LBS    60 635 01 00:   TENSION FROM SONIC
 GRR .GAPI   07 310 01 00:   GAMMA RAY FROM RESISTIVITY
 SPR .MV     07 010 01 00:   SPONTANEOUS POTENTIAL
 ILD.OHMM   07 120 46 00:   DEEP INDUCTION RESISTIVITY
 ILM.OHMM   07 120 44 00:   INDUCTION LOG MEDIUM RESISTIVITY
 RFOC.OHMM   07 220 04 00:   RESISTIVITY FOCUSED LOG RES.
 TENR.LBS    07 635 01 00:   TENSION FROM RESISTIVITY
 CALD.IN     45 280 60 00:   CALIPER FROM DENSITY LOG
 NPHI.DEC    42 890 03 00:   NEUTRON POROSITY SANDSTONE
 RHOB.G/C3   45 350 01 00:   BULK DENSITY
 CORR.G/C3   45 356 01 00:   DENSITY CORRECTION
 TEND.LBS    45 635 01 00:   TENSION FROM DENSITY LOG
~PARAMETER INFORMATION
#MNEM.UNIT          VALUE    DESCRIPTION
#----------   ------------   ------------------------------
 EKB .F         5137.0000:   Kelly bushing
 EGL .F         5127.0000:   Ground level
 EDF .F         5138.0000:   Drilling floor
 TD  .F         4080.0000:   Total depth
 DATE.        26-AUG-1984:   Date logged
 CLNT.            A2DTECH:   Client Code
 SL  . 43' FSL & 309' FEL:   Surface Location
 PD  .                 GL:   Permanent Datum
 EPD .F              5127:   Elevation Permanent Datum
 LMF .                 KB:   Log Measured From
 DMF .                 KB:   Drilling Measured From
 DD  .F              4080:   Depth driller
 DL  .F              4071:   Depth logger
 BLI .F              4069:   Bottom log interval
 TLI .F                26:   Top log interval
 CS1 .IN            8.625:   Casing size
 CBD1.       8.625 @ 516':   Casing driller 1
 CBL1.F               517:   Casing logger 1
 BS1 .IN            7.875:   Bit size
 DFT .            KCL MUD:   Type fluid in hole
 DFD .                  9:   Density
 DFV .                 38:   Viscosity
 DFPH.                8.5:   pH
 DFL .                 11:   Fluid loss
 MSS .           FLOWLINE:   Source of sample
 RMS .OHMM            3.7:   Rm
 MST .F                65:   Rm Meas. temp.
 RMF .OHMM            2.8:   Rmf
 MFST.F                65:   Rmf Meas. temp.
 RMC .OHMM            4.6:   Rmc
 MCST.F                65:   Rmc Meas. temp.
 MFSS.               CALC:   Source Rmf.
 RMB .OHMM           1.63:   Rm. at BHT
 BHT .F               148:   BHT.
 TCS .HRS               5:   Time Circ. stopped
 MRT .F               148:   Maximum recorded temp.
 LUN .               4082:   Logging unit number
 LUL .          ROOSEVELT:   Logging unit location
 ENGI.            FRANCIS:   Recorded By
 WITN.            JOHNSON:   Witnessed by
 ORIG.         2.5" PRINT:   Origin of data
 UWI .     49025109730000:   Unique Well ID
 DICO. A2D TECHNOLOGIES, INC.:   Digitizing Company
 DAPD.                 10:   Feet Above Permanent Datum
 BSD1.               4080:   Depth drilled with bit1
 MCSS.               CALC:   Source Rmc.
~OTHER INFORMATION
~A   DEPT       DT       TENS         GRR       SPR       RILD       RILM       RFOC       TENR       CALD       NPHI       RHOB       CORR       TEND   
# ...
 1433.5000    90.4980  -100.5980    99.4310   -49.2740     6.3500     5.9030     7.2670   -61.1330     9.4810     0.2620     2.5740     0.0650   -60.3790
 1434.0000    90.7320  -100.5980   100.3510   -49.4270     6.3880     5.8930     7.1240   -61.1330     9.4810     0.2650     2.5630     0.0610   -60.3790
 1434.5000    91.4940  -100.5980    99.7480   -49.5090     6.4260     5.8830     6.9800   -61.1330     9.4800     0.2780     2.5580     0.0520   -60.3790
 1435.0000    91.4940  -100.8410    99.5610   -49.5960     6.4650     5.8740     6.9150   -61.1330     9.4800     0.2910     2.5530     0.0430   -60.3790
 1435.5000    91.3590  -101.4120    99.0670   -49.6960     6.5030     5.8640     6.9790   -61.1330     9.4800     0.2940     2.5500     0.0330   -60.3790
 1436.0000    90.8450  -101.9830    98.3400   -49.7990     6.5410     5.8540     7.0340   -61.1330     9.4790     0.2920     2.5470     0.0370   -62.3050
 1436.5000    90.2990  -102.5540    93.3360   -49.7190     6.5790     5.8450     7.0890   -61.1330     9.4790     0.2690     2.5500     0.0450   -68.3160
 1437.0000    90.2990  -103.1250    92.9010   -49.3650     6.6170     5.8350     7.1730   -61.1330     9.4790     0.2760     2.5610     0.0540   -74.3280
 1437.5000    90.2990  -103.6960    94.0820   -49.2880     6.6660     5.8250     7.1360   -61.1330     9.4790     0.2880     2.5770     0.0620   -80.3390
 1438.0000    90.5850  -104.2670    96.0470   -49.1020     6.5900     5.8150     7.0600   -61.1330     9.4780     0.2990     2.5820     0.0640   -86.3510
 1438.5000    91.0520  -104.8380    97.7420   -48.9520     6.4810     5.8060     6.9850   -61.1330     9.4780     0.3060     2.5900     0.0520   -92.3620
 1439.0000    91.5190  -105.4090    99.4940   -48.7910     6.3730     5.7960     6.9090   -61.1330     9.4780     0.3110     2.5900     0.0620   -98.3740
 1439.5000    91.9870  -105.9810    99.6460   -48.6300     6.2640     5.7860     6.8330   -61.1330     9.4770     0.3190     2.5920     0.0640  -100.2990
 1440.0000    92.2910  -106.5520    99.4660   -48.4740     6.1560     5.7770     6.7900   -61.1330     9.4770     0.3110     2.5880     0.0650  -100.2990
 1440.5000    92.2910  -107.1230    99.9720   -48.3050     6.0470     5.7670     6.7900   -61.1330     9.4770     0.3060     2.5790     0.0660  -100.2990
 1441.0000    92.2910  -107.6940    96.4800   -48.2270     5.8640     5.7570     6.7900   -61.1330     9.4770     0.3000     2.5710     0.0660  -100.2990
 1441.5000    92.2910  -108.2650    92.9430   -48.2950     5.9010     5.7600     6.7480   -61.1330     9.4760     0.2950     2.5570     0.0480  -100.2990
 1442.0000    92.2910  -108.8360    92.2780   -48.3460     6.0190     5.7520     6.6140   -61.1330     9.4760     0.2900     2.5430     0.0430  -100.2990
 1442.5000    92.2910  -109.4070    99.0040   -48.4030     6.1360     5.8940     6.4810   -61.1330     9.4760     0.2840     2.5470     0.0430  -100.2990
 1443.0000    92.2910  -109.9780   101.2360   -48.4610     6.2540     6.0120     6.4270   -61.1330     9.4750     0.2790     2.5550     0.0430  -100.2990
 1443.5000    91.5490  -110.5490   101.1100   -48.5130     6.3710     6.1300     6.8020   -61.1330     9.4750     0.2740     2.5700     0.0410  -100.2990
 1444.0000    90.5730  -111.1200    99.7240   -48.5720     6.4880     6.2480     7.1140   -61.1330     9.4750     0.2670     2.5670     0.0360  -100.2990
 1444.5000    89.5960  -111.6910    98.5470   -48.6370     6.6060     6.3100     7.4270   -61.1330     9.4750     0.2590     2.5620     0.0290  -100.2990
 1445.0000    88.5060  -112.2620    97.1720   -48.8710     6.7230     6.3100     7.7390   -61.1330     9.4740     0.2570     2.5620     0.0310  -100.2990
 1445.5000    88.3070  -112.8330    95.6290   -49.0830     6.8410     6.3100     8.0060   -61.1330     9.4740     0.2580     2.5680     0.0480  -100.2990
 1446.0000    88.4780  -113.4040    94.9130   -49.3270     6.9150     6.3100     7.8870   -61.1330     9.4740     0.2600     2.5760     0.0510  -100.2990
 1446.5000    88.9920  -113.9750    95.3840   -49.3660     6.9150     6.3100     7.7830   -61.1330     9.4740     0.2660     2.5850     0.0380  -100.2990
 1447.0000    89.5020  -114.5460    95.7190   -49.2580     6.9150     6.2760     7.6800   -61.1330     9.4730     0.2670     2.5950     0.0280  -100.2990
 1447.5000    89.6170  -115.1170    96.6830   -49.1710     6.9150     6.2350     7.5760   -61.1330     9.4730     0.2640     2.6030     0.0340  -100.2990
 1448.0000    89.7310  -115.6880    97.7930   -49.0750     6.9150     6.1930     7.4410   -61.1330     9.4730     0.2570     2.5910     0.0400   -95.2690
 1448.5000    89.8460  -116.2590    98.6160   -48.9510     6.9150     6.1510     7.4610   -61.1330     9.4720     0.2620     2.5780     0.0470   -85.0500
 1449.0000    89.8740  -116.8300    99.5610   -48.7690     6.9150     6.0830     7.4900   -61.1330     9.4720     0.2680     2.5660     0.0450   -74.8300
 1449.5000    89.8220  -117.4020    95.2690   -48.5780     6.9150     6.1370     7.5200   -61.1330     9.4720     0.2700     2.5710     0.0430   -64.6110
 1450.0000    89.7710  -117.9730    93.3430   -48.3940     6.9150     6.2850     7.5490   -61.1330     9.4720     0.2650     2.5710     0.0440   -62.5180
 1450.5000    89.7200  -118.5440    91.7740   -48.1980     6.9140     6.4330     7.5780   -61.1330     9.4710     0.2600     2.5690     0.0460   -66.1680
 1451.0000    89.3150  -119.1150    92.0010   -48.0150     6.8990     6.5450     7.6550   -61.1330     9.4710     0.2550     2.5670     0.0490   -69.8180
 1451.5000    88.7160  -119.6860    92.6360   -47.8690     6.8830     6.6660     7.7770   -61.1330     9.4710     0.2490     2.5640     0.0510   -73.4670
 1452.0000    88.2770  -120.2570    90.8170   -48.1790     6.8670     6.6410     7.8990   -61.1330     9.4700     0.2510     2.5710     0.0490   -77.1170
 1452.5000    88.1840  -120.4440    87.0760   -48.4830     6.8510     6.6170     8.0060   -61.1330     9.4700     0.2610     2.5860     0.0480   -80.7670
 1453.0000    88.0900  -120.3080    86.5320   -48.8020     6.8350     6.5930     7.4410   -61.1330     9.4700     0.2720     2.5950     0.0480   -84.4170
 1453.5000    87.9970  -120.1730    91.2160   -49.1210     6.8190     6.5690     7.5860   -61.1330     9.4700     0.2700     2.5950     0.0620   -88.0670
 1454.0000    87.9080  -120.0370    93.6160   -49.4210     6.8030     6.5450     7.7390   -61.1330     9.4690     0.2630     2.5950     0.0780   -91.7170
 1454.5000    87.9080  -119.9010    93.7880   -49.7660     6.7870     6.5450     8.0060   -61.1330     9.4690     0.2650     2.5900     0.0880   -95.3660
 1455.0000    87.9080  -119.7650    94.7370   -49.6740     6.7710     6.3410     7.7810   -61.1330     9.4690     0.2700     2.5830     0.0970   -99.0160
 1455.5000    88.8260  -119.6300    96.2370   -49.5220     6.7560     6.1720     7.5070   -61.1330     9.4680     0.2750     2.5750     0.1060  -100.2990
 1456.0000    89.5020  -119.4940    95.4400   -49.3610     6.7400     6.0700     7.2330   -61.1330     9.4680     0.2800     2.5630     0.1110  -100.2990
 1456.5000    90.1080  -119.3580    94.3450   -49.2140     6.7240     6.0410     6.7900   -61.1330     9.4680     0.2840     2.5570     0.1080  -100.2990
 1457.0000    90.6970  -119.2220    96.4330   -49.0380     6.7080     6.0130     6.9410   -61.1330     9.4680     0.2800     2.5530     0.1050  -100.2990
 1457.5000    90.3470  -119.0870    99.4750   -48.5940     6.6920     5.9850     7.2290   -61.1330     9.4670     0.2790     2.5610     0.0810  -100.2990
 1458.0000    89.9000  -118.9510    97.9830   -47.9010     6.6750     5.9730     7.5780   -61.1330     9.4670     0.2810     2.5720     0.0630  -100.2990
 1458.5000    89.9470  -118.8150    92.6090   -47.9590     6.6660     5.9730     7.4580   -61.1330     9.4670     0.2830     2.5670     0.0540  -100.2990
 1459.0000    89.9990  -118.6790    93.6520   -48.1080     6.6670     5.9730     7.3060   -61.1330     9.4670     0.2850     2.5440     0.0470   -99.8170
