~VERSION INFORMATION
 VERS.                2.0:   CWLS LOG ASCII STANDARD - VERSION 2.0
 WRAP.                 NO:   ONE LINE PER DEPTH STEP
~WELL INFORMATION
#MNEM.UNIT      DATA TYPE    INFORMATION
#----------   ------------   ------------------------------
 STRT.F           29.5000:   START DEPTH
 STOP.F         4082.0000:   STOP DEPTH
 STEP.F            0.5000:   STEP LENGTH
 NULL.          -999.2500:   NO VALUE
 COMP. LAWRENCE ALLISON & ASSOCIATES:   COMPANY
 WELL. LAWRENCE "X" #88-3:   WELL
 FLD .           N P R #3:   FIELD
 LOC .       S3 T38N R78W:   LOCATION
 CNTY.            NATRONA:   COUNTY
 STAT.            WYOMING:   STATE
 CTRY. UNITED STATES OF AMERICA:   COUNTRY
 SRVC.      DRESSER ATLAS:   SERVICE COMPANY
 DATE.        26-AUG-1984:   LOGDATE
 API .     49025109730000:   API NUMBER
~CURVE INFORMATION
#MNEM.UNIT       API CODE    CURVE DESCRIPTION
#----------   ------------   ------------------------------
 DEPT.F                  :   
 DT  .US/F   60 520 00 00:   DELTA TIME
 TENS.LBS    60 635 01 00:   TENSION FROM SONIC
 GRR .GAPI   07 310 01 00:   GAMMA RAY FROM RESISTIVITY
 SPR .MV     07 010 01 00:   SPONTANEOUS POTENTIAL
 ILD.OHMM   07 120 46 00:   DEEP INDUCTION RESISTIVITY
 ILM.OHMM   07 120 44 00:   INDUCTION LOG MEDIUM RESISTIVITY
 RFOC.OHMM   07 220 04 00:   RESISTIVITY FOCUSED LOG RES.
 TENR.LBS    07 635 01 00:   TENSION FROM RESISTIVITY
 CALD.IN     45 280 60 00:   CALIPER FROM DENSITY LOG
 NPHI.DEC    42 890 03 00:   NEUTRON POROSITY SANDSTONE
 RHOB.G/C3   45 350 01 00:   BULK DENSITY
 CORR.G/C3   45 356 01 00:   DENSITY CORRECTION
 TEND.LBS    45 635 01 00:   TENSION FROM DENSITY LOG
~PARAMETER INFORMATION
#MNEM.UNIT          VALUE    DESCRIPTION
#----------   ------------   ------------------------------
 EKB .F         5137.0000:   Kelly bushing
 EGL .F         5127.0000:   Ground level
 EDF .F         5138.0000:   Drilling floor
 TD  .F         4080.0000:   Total depth
 DATE.        26-AUG-1984:   Date logged
 CLNT.            A2DTECH:   Client Code
 SL  . 43' FSL & 309' FEL:   Surface Location
 PD  .                 GL:   Permanent Datum
 EPD .F              5127:   Elevation Permanent Datum
 LMF .                 KB:   Log Measured From
 DMF .                 KB:   Drilling Measured From
 DD  .F              4080:   Depth driller
 DL  .F              4071:   Depth logger
 BLI .F              4069:   Bottom log interval
 TLI .F                26:   Top log interval
 CS1 .IN            8.625:   Casing size
 CBD1.       8.625 @ 516':   Casing driller 1
 CBL1.F               517:   Casing logger 1
 BS1 .IN            7.875:   Bit size
 DFT .            KCL MUD:   Type fluid in hole
 DFD .                  9:   Density
 DFV .                 38:   Viscosity
 DFPH.                8.5:   pH
 DFL .                 11:   Fluid loss
 MSS .           FLOWLINE:   Source of sample
 RMS .OHMM            3.7:   Rm
 MST .F                65:   Rm Meas. temp.
 RMF .OHMM            2.8:   Rmf
 MFST.F                65:   Rmf Meas. temp.
 RMC .OHMM            4.6:   Rmc
 MCST.F                65:   Rmc Meas. temp.
 MFSS.               CALC:   Source Rmf.
 RMB .OHMM           1.63:   Rm. at BHT
 BHT .F               148:   BHT.
 TCS .HRS               5:   Time Circ. stopped
 MRT .F               148:   Maximum recorded temp.
 LUN .               4082:   Logging unit number
 LUL .          ROOSEVELT:   Logging unit location
 ENGI.            FRANCIS:   Recorded By
 WITN.            JOHNSON:   Witnessed by
 ORIG.         2.5" PRINT:   Origin of data
 UWI .     49025109730000:   Unique Well ID
 DICO. A2D TECHNOLOGIES, INC.:   Digitizing Company
 DAPD.                 10:   Feet Above Permanent Datum
 BSD1.               4080:   Depth drilled with bit1
 MCSS.               CALC:   Source Rmc.
~OTHER INFORMATION
~A   DEPT       DT       TENS         GRR       SPR       RILD       RILM       RFOC       TENR       CALD       NPHI       RHOB       CORR       TEND   
# ...
 4033.5000    75.1590   240.9670    83.7260   -24.0170     3.9200     4.1960     7.6940    97.9130     7.4110     0.2530     2.5850     0.0620   113.5970
 4034.0000    75.1590   242.5670    86.3700   -24.1550     3.7570     4.0430     6.8500    97.9130     7.4090     0.2670     2.5860     0.0540   118.4630
 4034.5000    78.1670   244.1670    92.5970   -24.1540     3.6140     3.8890     5.2540    97.9130     7.4080     0.2800     2.5820     0.0450   123.3300
 4035.0000    82.3900   245.7670    99.0420   -23.9950     3.4720     3.7350     4.3920    97.9130     7.4060     0.2960     2.5730     0.0360   128.1960
 4035.5000    86.6140   247.3670   103.2190   -23.8530     3.3290     3.5820     4.0660    97.9130     7.4050     0.2960     2.5660     0.0570   133.0620
 4036.0000    88.4140   248.9670   102.5790   -23.7080     3.0900     3.3240     4.3640    97.9130     7.4030     0.2960     2.5700     0.0740   137.9290
 4036.5000    88.4210   250.5660   101.1650   -23.5610     3.1560     3.3890     4.6260    97.9130     7.4020     0.3030     2.5730     0.0800   142.7950
 4037.0000    87.7630   252.1660    98.2050   -23.4170     3.3610     3.5890     4.7500    97.9130     7.4010     0.3020     2.5770     0.0880   147.6620
 4037.5000    87.1040   253.7660    93.9500   -23.2750     3.5660     3.7890     4.8740    97.9130     7.3990     0.2980     2.5800     0.0920   152.5280
 4038.0000    86.8520   255.3660    94.0750   -23.1130     3.7710     3.9880     4.9970   100.4770     7.3970     0.2940     2.5910     0.0930   157.3950
 4038.5000    86.7670   256.9660    97.7970   -23.0640     3.9760     4.1880     5.0830   103.0420     7.3860     0.2900     2.6050     0.0950   157.6420
 4039.0000    86.5600   258.6060   101.5870   -23.1910     4.1810     4.3880     5.1240   105.6060     7.3750     0.2860     2.6000     0.0950   155.2090
 4039.5000    86.1510   260.3150   102.0470   -23.2990     4.3850     4.5870     5.1590   108.1710     7.3640     0.2710     2.5870     0.0950   152.7750
 4040.0000    84.9200   262.0240   100.4570   -23.4130     4.5900     4.7950     5.0650   110.7360     7.3530     0.2310     2.5730     0.0960   150.3420
 4040.5000    79.9340   263.7330    92.8910   -23.5270     4.7950     5.0060     6.4150   113.3000     7.3410     0.1890     2.6020     0.0810   147.9090
 4041.0000    75.1340   265.4410    85.2130   -23.6390     5.0000     5.2250     8.7680   115.8650     7.3300     0.1790     2.6470     0.0450   145.4760
 4041.5000    69.9800   267.1500    77.1540   -23.7530     5.2050     5.4450    10.5370   118.4290     7.3190     0.1800     2.6920    -0.0030   143.0420
 4042.0000    70.3470   268.8590    71.7430   -23.9000     5.4100     5.6640     8.7120   120.9940     7.3170     0.2010     2.7290    -0.0120   140.6090
 4042.5000    72.4420   270.5680    79.1170   -24.0930     5.6010     5.8840     6.4270   123.5590     7.3140     0.2340     2.7010     0.0010   140.7190
 4043.0000    76.9470   272.2760    86.9750   -24.2870     5.7630     6.1030     6.4270   126.1230     7.3120     0.2530     2.6310     0.0120   144.2030
 4043.5000    79.4550   273.9850    93.2540   -24.4790     5.9040     6.3230     7.2210   128.6880     7.3100     0.2630     2.5920     0.0230   147.6870
 4044.0000    79.2500   275.6940    95.5790   -24.6750     6.0110     6.5420     7.9130   131.2520     7.3080     0.2430     2.5820     0.0330   151.1720
 4044.5000    77.6730   277.4030    98.7450   -24.8680     6.1180     6.6660     8.5490   133.8170     7.3060     0.2240     2.5770     0.0420   154.6560
 4045.0000    74.3630   279.1110    97.9350   -25.0570     6.2400     6.6660     9.1130   136.3820     7.3030     0.2170     2.5860     0.0510   158.1400
 4045.5000    73.7720   280.8200    95.8360   -25.2760     6.4040     6.6660     9.6150   138.2480     7.3010     0.2130     2.6020     0.0560   161.6240
 4046.0000    73.5540   282.5290    94.9920   -25.3420     6.5670     6.6660     9.3720   139.4050     7.2990     0.2100     2.6170     0.0610   165.1090
 4046.5000    74.1630   284.2380    94.1300   -25.1200     6.7310     6.6660     8.6430   140.5620     7.2970     0.2100     2.6140     0.0660   168.5930
 4047.0000    76.1170   285.9460    94.4400   -24.9250     6.8950     6.6660     7.9140   141.7190     7.2940     0.2200     2.6090     0.0710   172.0770
 4047.5000    78.5300   287.6550    94.7070   -24.7200     7.0580     6.6660     7.1850   142.8760     7.2920     0.2410     2.6000     0.0770   175.5620
 4048.0000    80.7370   289.3640    95.0170   -24.5160     7.2220     6.7200     6.7900   144.0330     7.2900     0.2590     2.5970     0.0720   179.0460
 4048.5000    80.9360   291.0730    95.2960   -24.3120     7.3860     6.7900     7.4740   145.1910     7.2880     0.2420     2.5970     0.0560   182.5300
 4049.0000    79.1500   292.7810    95.5950   -24.1140     7.5490     7.6640     8.1140   146.3480     7.2860     0.2300     2.5990     0.0450   186.0140
 4049.5000    77.1510   294.4900    96.1910   -23.8970     7.7180     8.6280     8.7740   147.5050     7.2830     0.1960     2.6090     0.0670   189.4990
 4050.0000    73.2380   296.1990    96.7460   -23.8620     8.3400    10.1580    12.0340   148.6620     7.2810     0.1550     2.6260     0.0820   192.9830
 4050.5000    69.2150   297.9080    97.7700   -23.9690     8.9820    10.1280    15.3990   149.8190     7.2790     0.1760     2.6490     0.0970   196.4670
 4051.0000    65.6470   299.6160    95.9640   -24.0570     9.9730    10.0550    19.2810   150.9760     7.2770     0.2090     2.6740     0.0990   200.1290
 4051.5000    64.6020   301.3250    93.4330   -24.1480     9.9050     9.9820    19.2810   152.1330     7.2740     0.2200     2.6810     0.0700   204.3410
 4052.0000    64.9750   303.0340    91.2630   -24.2420     9.7550     9.9090    13.7550   153.2900     7.2720     0.2300     2.6770     0.0480   208.5530
 4052.5000    66.9920   304.7430    92.6150   -24.3290     9.6050     9.8360     9.1010   154.4470     7.2700     0.2180     2.6580     0.0380   212.7660
 4053.0000    70.1590   306.4510    94.2540   -24.4270     9.4560     9.7630     8.7670   155.6040     7.2680     0.2230     2.6450     0.0390   216.9780
 4053.5000    72.4500   308.1600    96.3160   -24.5120     9.3060     9.6900     8.4650   156.7610     7.2650     0.2150     2.6400     0.0390   221.1900
 4054.0000    73.6650   309.8690    96.4310   -24.5800     9.2690     9.5320     8.1540   157.9190     7.2630     0.2180     2.6450     0.0380   225.4020
 4054.5000    71.4630   311.5780    96.4870   -24.3100     9.1670     9.6290    10.3400   159.0760     7.2610     0.2250     2.6530     0.0310   229.6140
 4055.0000    68.5860   313.2860  -999.2500   -24.0340     9.0610     9.9210    12.5890   160.2330     7.2590     0.2260     2.6620     0.0240   233.8260
 4055.5000    65.7080   314.9950  -999.2500   -23.7440     8.9560     9.8560    14.8380   161.3900     7.2570     0.2260     2.6640     0.0250   238.0390
 4056.0000    63.4060   316.7040  -999.2500   -23.4650     8.8500     9.3480    16.9610   162.5470     7.2540     0.2260     2.6660     0.0500   242.2510
 4056.5000    62.2110   329.6810  -999.2500   -23.1820     8.6110     8.8410    15.5000   163.7040     7.2520     0.2260     2.6720     0.0740   246.4630
 4057.0000    62.4600   359.5620  -999.2500   -22.8970     8.0130     8.3330    13.2990   164.8610     7.2500     0.2260     2.6710     0.0930   250.6750
 4057.5000    64.3450   389.4420  -999.2500   -22.6150     7.4150     7.8250    10.9300   166.0180     7.2480     0.2260     2.6550     0.0870   254.8870
 4058.0000    68.6850   419.3230  -999.2500   -22.3370     6.8170     7.3180     8.9400   167.1750     7.2460     0.2260     2.6130     0.0800   259.0990
 4058.5000    73.0250   422.3110  -999.2500   -22.0260     6.6660     6.8100     6.7840   168.3320     7.2430     0.2260     2.5700     0.0930   263.3120
 4059.0000    74.6610   384.9600  -999.2500   -21.8350     6.7900     6.1960     5.7870   169.4890     7.2440     0.2260     2.5140     0.1100   267.5240
