~VERSION INFORMATION
 VERS.                2.0:   CWLS LOG ASCII STANDARD - VERSION 2.0
 WRAP.                 NO:   ONE LINE PER DEPTH STEP
~WELL INFORMATION
#MNEM.UNIT      DATA TYPE    INFORMATION
#----------   ------------   ------------------------------
 STRT.F           29.5000:   START DEPTH
 STOP.F         4082.0000:   STOP DEPTH
 STEP.F            0.5000:   STEP LENGTH
 NULL.          -999.2500:   NO VALUE
 COMP. LAWRENCE ALLISON & ASSOCIATES:   COMPANY
 WELL. LAWRENCE "X" #88-3:   WELL
 FLD .           N P R #3:   FIELD
 LOC .       S3 T38N R78W:   LOCATION
 CNTY.            NATRONA:   COUNTY
 STAT.            WYOMING:   STATE
 CTRY. UNITED STATES OF AMERICA:   COUNTRY
 SRVC.      DRESSER ATLAS:   SERVICE COMPANY
 DATE.        26-AUG-1984:   LOGDATE
 API .     49025109730000:   API NUMBER
~CURVE INFORMATION
#MNEM.UNIT       API CODE    CURVE DESCRIPTION
#----------   ------------   ------------------------------
 DEPT.F                  :   
 DT  .US/F   60 520 00 00:   DELTA TIME
 TENS.LBS    60 635 01 00:   TENSION FROM SONIC
 GRR .GAPI   07 310 01 00:   GAMMA RAY FROM RESISTIVITY
 SPR .MV     07 010 01 00:   SPONTANEOUS POTENTIAL
 ILD.OHMM   07 120 46 00:   DEEP INDUCTION RESISTIVITY
 ILM.OHMM   07 120 44 00:   INDUCTION LOG MEDIUM RESISTIVITY
 RFOC.OHMM   07 220 04 00:   RESISTIVITY FOCUSED LOG RES.
 TENR.LBS    07 635 01 00:   TENSION FROM RESISTIVITY
 CALD.IN     45 280 60 00:   CALIPER FROM DENSITY LOG
 NPHI.DEC    42 890 03 00:   NEUTRON POROSITY SANDSTONE
 RHOB.G/C3   45 350 01 00:   BULK DENSITY
 CORR.G/C3   45 356 01 00:   DENSITY CORRECTION
 TEND.LBS    45 635 01 00:   TENSION FROM DENSITY LOG
~PARAMETER INFORMATION
#MNEM.UNIT          VALUE    DESCRIPTION
#----------   ------------   ------------------------------
 EKB .F         5137.0000:   Kelly bushing
 EGL .F         5127.0000:   Ground level
 EDF .F         5138.0000:   Drilling floor
 TD  .F         4080.0000:   Total depth
 DATE.        26-AUG-1984:   Date logged
 CLNT.            A2DTECH:   Client Code
 SL  . 43' FSL & 309' FEL:   Surface Location
 PD  .                 GL:   Permanent Datum
 EPD .F              5127:   Elevation Permanent Datum
 LMF .                 KB:   Log Measured From
 DMF .                 KB:   Drilling Measured From
 DD  .F              4080:   Depth driller
 DL  .F              4071:   Depth logger
 BLI .F              4069:   Bottom log interval
 TLI .F                26:   Top log interval
 CS1 .IN            8.625:   Casing size
 CBD1.       8.625 @ 516':   Casing driller 1
 CBL1.F               517:   Casing logger 1
 BS1 .IN            7.875:   Bit size
 DFT .            KCL MUD:   Type fluid in hole
 DFD .                  9:   Density
 DFV .                 38:   Viscosity
 DFPH.                8.5:   pH
 DFL .                 11:   Fluid loss
 MSS .           FLOWLINE:   Source of sample
 RMS .OHMM            3.7:   Rm
 MST .F                65:   Rm Meas. temp.
 RMF .OHMM            2.8:   Rmf
 MFST.F                65:   Rmf Meas. temp.
 RMC .OHMM            4.6:   Rmc
 MCST.F                65:   Rmc Meas. temp.
 MFSS.               CALC:   Source Rmf.
 RMB .OHMM           1.63:   Rm. at BHT
 BHT .F               148:   BHT.
 TCS .HRS               5:   Time Circ. stopped
 MRT .F               148:   Maximum recorded temp.
 LUN .               4082:   Logging unit number
 LUL .          ROOSEVELT:   Logging unit location
 ENGI.            FRANCIS:   Recorded By
 WITN.            JOHNSON:   Witnessed by
 ORIG.         2.5" PRINT:   Origin of data
 UWI .     49025109730000:   Unique Well ID
 DICO. A2D TECHNOLOGIES, INC.:   Digitizing Company
 DAPD.                 10:   Feet Above Permanent Datum
 BSD1.               4080:   Depth drilled with bit1
 MCSS.               CALC:   Source Rmc.
~OTHER INFORMATION
~A   DEPT       DT       TENS         GRR       SPR       RILD       RILM       RFOC       TENR       CALD       NPHI       RHOB       CORR       TEND   
# ...
 3331.5000    82.9330   -71.0540   141.8200   -39.0570     5.2080     5.2650     6.4560   -61.1330     8.2990     0.2640     2.6600     0.0440   -70.2260
 3332.0000    81.8970   -71.8010   136.3310   -39.0310     5.2780     5.2940     6.7880   -61.1330     8.2990     0.2570     2.7410     0.0530   -60.7000
 3332.5000    81.7700   -72.5480   124.2260   -39.0060     5.3470     5.3220     7.1730   -61.1330     8.3000     0.2540     2.7220     0.0630   -61.4680
 3333.0000    82.2710   -73.2950   123.1170   -38.9800     5.4170     5.3510     7.0050   -61.1330     8.3000     0.2540     2.6520     0.0590   -62.2360
 3333.5000    82.9280   -74.0420   125.7340   -38.9540     5.4870     5.3790     6.8060   -61.1330     8.3010     0.2530     2.5930     0.0360   -63.0040
 3334.0000    83.0380   -74.7890   130.3220   -38.9290     5.5510     5.4080     6.5450   -61.1330     8.3020     0.2510     2.5660     0.0350   -63.7720
 3334.5000    82.7840   -75.5360   130.3120   -38.9040     5.5120     5.4360     6.6710   -61.1330     8.3020     0.2480     2.5650     0.0350   -64.5410
 3335.0000    82.5300   -76.2830   129.8660   -38.8770     5.4760     5.4650     6.8510   -61.1330     8.3030     0.2470     2.5770     0.0350   -65.3090
 3335.5000    83.1010   -77.0300   127.5210   -38.8530     5.4400     5.4930     7.0430   -61.1330     8.3030     0.2480     2.5820     0.0380   -66.0770
 3336.0000    83.6730   -77.7770   127.7160   -38.8260     5.4040     5.5220     6.9420   -61.1330     8.3030     0.2500     2.5710     0.0440   -66.8450
 3336.5000    84.3230   -78.5240   132.3230   -38.8010     5.3680     5.5510     6.7900   -61.1330     8.3030     0.2520     2.5590     0.0490   -67.6130
 3337.0000    84.3960   -79.2710   135.6560   -38.7890     5.3330     5.5510     7.0160   -61.1330     8.3020     0.2560     2.5510     0.0530   -68.3810
 3337.5000    84.4800   -80.0180   136.2300   -38.8870     5.2970     5.4570     7.4090   -61.2740     8.3020     0.2660     2.5460     0.0480   -69.1500
 3338.0000    84.6700   -80.7650   136.2850   -38.9710     5.2540     5.3370     7.7180   -61.3930     8.3020     0.2780     2.5520     0.0390   -69.9180
 3338.5000    84.9600   -81.5120   138.1360   -39.0620     5.1310     5.2180     7.4970   -61.5120     8.3010     0.2740     2.5570     0.0290   -70.6860
 3339.0000    85.2500   -82.2590   141.8630   -39.1480     4.9800     5.0990     6.9780   -61.6300     8.3010     0.2700     2.5610     0.0370   -71.4540
 3339.5000    85.8430   -83.0060   144.7890   -39.2370     4.8290     4.9790     6.4590   -61.7490     8.3010     0.2750     2.5590     0.0550   -72.2220
 3340.0000    86.1160   -83.7530   141.1730   -39.3250     4.6780     4.8600     6.1150   -61.8680     8.3010     0.2790     2.5560     0.0600   -72.9900
 3340.5000    86.8750   -84.5000   137.5770   -39.4130     4.5270     4.7400     6.3100   -61.9870     8.3000     0.2840     2.5540     0.0650   -73.7590
 3341.0000    87.9080   -85.2470   133.5950   -39.5010     4.3760     4.6210     6.2190   -62.1060     8.3000     0.2880     2.5500     0.0700   -74.5270
 3341.5000    89.1780   -85.9940   131.7280   -39.5900     4.2250     4.5010     5.9210   -62.2250     8.3000     0.2840     2.5450     0.0650   -75.2950
 3342.0000    90.3780   -86.7410   135.7060   -39.6770     4.0660     4.3750     5.6230   -62.3440     8.3000     0.2800     2.5420     0.0600   -76.0630
 3342.5000    91.2950   -87.4880   140.6890   -39.7680     4.0660     4.3370     5.1590   -62.4630     8.2990     0.2750     2.5470     0.0540   -76.8310
 3343.0000    91.1750   -88.2350   144.6240   -39.8520     4.0660     4.2970     5.2380   -62.5820     8.2990     0.2750     2.5500     0.0480   -77.5990
 3343.5000    90.1590   -88.9820   142.3560   -39.9510     4.0660     4.2570     5.4510   -62.7010     8.2990     0.2760     2.5520     0.0420   -78.3680
 3344.0000    89.4460   -89.7290   139.9650   -39.9610     4.0660     4.2180     5.6650   -62.8200     8.2980     0.2780     2.5460     0.0360   -79.1360
 3344.5000    88.8370   -90.4760   137.9060   -39.9640     4.0660     4.1030     5.8780   -62.9390     8.2980     0.2800     2.5420     0.0300   -79.9040
 3345.0000    89.0310   -91.2230   136.2840   -40.0210     4.0660     4.0400     6.0830   -63.0580     8.2980     0.2810     2.5400     0.0310   -80.3390
 3345.5000    89.4470   -91.9700   134.3720   -40.0990     3.9360     3.9670     5.9080   -63.1770     8.2980     0.2830     2.5400     0.0410   -80.3390
 3346.0000    89.8620   -92.7170   132.0260   -40.1740     3.8110     3.8640     5.7400   -63.2960     8.2970     0.2840     2.5370     0.0520   -80.3390
 3346.5000    90.2780   -93.4640   129.5080   -40.2490     3.6870     3.7620     5.5720   -63.4140     8.2970     0.2940     2.5310     0.0500   -80.3390
 3347.0000    90.8960   -94.2110   127.6250   -40.3240     3.5620     3.6600     5.4040   -63.5330     8.2970     0.3010     2.5220     0.0400   -80.3390
 3347.5000    91.7430   -94.9580   131.8740   -40.3990     3.4370     3.5570     5.2350   -63.6520     8.2960     0.3020     2.5070     0.0300   -80.3390
 3348.0000    92.5900   -95.7050   135.8570   -40.4750     3.3120     3.4550     5.0670   -63.7710     8.2960     0.2990     2.5060     0.0340   -80.3390
 3348.5000    93.4360   -96.4520   140.0620   -40.5500     3.1870     3.3530     4.8990   -63.8900     8.2960     0.2950     2.5060     0.0510   -80.3390
 3349.0000    94.2830   -97.1990   144.5250   -40.6250     3.0620     3.2510     4.7310   -64.0090     8.2960     0.2900     2.5060     0.0660   -80.3390
 3349.5000    94.6810   -97.9460   146.7500   -40.7000     3.0340     3.1470     4.5630   -64.1280     8.2950     0.2860     2.5000     0.0770   -80.3390
 3350.0000    94.8800   -98.6930   145.1870   -40.7740     3.0340     3.1470     4.3940   -64.2470     8.2950     0.2900     2.5020     0.0660   -80.3390
 3350.5000    93.8000   -99.4400   143.9780   -40.8520     3.0660     3.1690     4.2960   -64.3660     8.2950     0.2950     2.5100     0.0580   -80.3390
 3351.0000    92.8970  -100.1870   142.1630   -40.9210     3.1070     3.2250     4.5470   -64.4850     8.2950     0.2960     2.5160     0.0470   -80.3390
 3351.5000    91.9940  -100.5160   139.5810   -41.0050     3.1480     3.2800     4.7920   -64.6040     8.2940     0.2860     2.5130     0.0290   -80.3390
 3352.0000    91.5800  -100.3350   136.8950   -41.0730     3.1890     3.3350     5.0380   -64.7230     8.2940     0.2840     2.5070     0.0120   -80.3390
 3352.5000    91.4110  -100.1530   137.9580   -41.1070     3.2300     3.3900     5.2540   -64.8420     8.2940     0.2860     2.5070    -0.0050   -80.3390
 3353.0000    91.2950   -99.9720   139.3860   -40.6990     3.2710     3.4450     5.2540   -64.9610     8.2930     0.2870     2.5080     0.0180   -80.3390
 3353.5000    91.2950   -99.7910   140.4050   -40.3380     3.3120     3.5000     5.2540   -65.0790     8.2930     0.2880     2.5100     0.0500   -80.3390
 3354.0000    91.5470   -99.6100   139.0790   -39.9810     3.3530     3.5550     5.1920   -65.1980     8.2930     0.2930     2.5090     0.0540   -80.3390
 3354.5000    91.8860   -99.4280   138.3170   -39.9300     3.3860     3.5860     5.1130   -65.3170     8.2930     0.2980     2.4990     0.0470   -80.3390
 3355.0000    92.2240   -99.2470   140.9070   -39.8540     3.4060     3.6020     5.0330   -65.4360     8.2920     0.2920     2.4880     0.0330   -80.3390
 3355.5000    92.5630   -99.0660   144.1090   -39.8000     3.4230     3.6170     4.9770   -65.5550     8.2920     0.2950     2.4790     0.0180   -80.3390
 3356.0000    92.8880   -98.8840   146.5300   -39.7340     3.4400     3.6330     4.9900   -65.6740     8.2920     0.2950     2.4850     0.0110   -80.3390
 3356.5000    92.6070   -98.7030   144.5280   -39.6730     3.4570     3.6480     5.0030   -65.7930     8.2920     0.2950     2.4990     0.0140   -80.3390
 3357.0000    92.3360   -98.5220   142.3930   -39.6100     3.4740     3.6640     5.0160   -65.9120     8.2910     0.2890     2.5110     0.0160   -80.3390
