~VERSION INFORMATION
 VERS.                2.0:   CWLS LOG ASCII STANDARD - VERSION 2.0
 WRAP.                 NO:   ONE LINE PER DEPTH STEP
~WELL INFORMATION
#MNEM.UNIT      DATA TYPE    INFORMATION
#----------   ------------   ------------------------------
 STRT.F           29.5000:   START DEPTH
 STOP.F         4082.0000:   STOP DEPTH
 STEP.F            0.5000:   STEP LENGTH
 NULL.          -999.2500:   NO VALUE
 COMP. LAWRENCE ALLISON & ASSOCIATES:   COMPANY
 WELL. LAWRENCE "X" #88-3:   WELL
 FLD .           N P R #3:   FIELD
 LOC .       S3 T38N R78W:   LOCATION
 CNTY.            NATRONA:   COUNTY
 STAT.            WYOMING:   STATE
 CTRY. UNITED STATES OF AMERICA:   COUNTRY
 SRVC.      DRESSER ATLAS:   SERVICE COMPANY
 DATE.        26-AUG-1984:   LOGDATE
 API .     49025109730000:   API NUMBER
~CURVE INFORMATION
#MNEM.UNIT       API CODE    CURVE DESCRIPTION
#----------   ------------   ------------------------------
 DEPT.F                  :   
 DT  .US/F   60 520 00 00:   DELTA TIME
 TENS.LBS    60 635 01 00:   TENSION FROM SONIC
 GRR .GAPI   07 310 01 00:   GAMMA RAY FROM RESISTIVITY
 SPR .MV     07 010 01 00:   SPONTANEOUS POTENTIAL
 ILD.OHMM   07 120 46 00:   DEEP INDUCTION RESISTIVITY
 ILM.OHMM   07 120 44 00:   INDUCTION LOG MEDIUM RESISTIVITY
 RFOC.OHMM   07 220 04 00:   RESISTIVITY FOCUSED LOG RES.
 TENR.LBS    07 635 01 00:   TENSION FROM RESISTIVITY
 CALD.IN     45 280 60 00:   CALIPER FROM DENSITY LOG
 NPHI.DEC    42 890 03 00:   NEUTRON POROSITY SANDSTONE
 RHOB.G/C3   45 350 01 00:   BULK DENSITY
 CORR.G/C3   45 356 01 00:   DENSITY CORRECTION
 TEND.LBS    45 635 01 00:   TENSION FROM DENSITY LOG
~PARAMETER INFORMATION
#MNEM.UNIT          VALUE    DESCRIPTION
#----------   ------------   ------------------------------
 EKB .F         5137.0000:   Kelly bushing
 EGL .F         5127.0000:   Ground level
 EDF .F         5138.0000:   Drilling floor
 TD  .F         4080.0000:   Total depth
 DATE.        26-AUG-1984:   Date logged
 CLNT.            A2DTECH:   Client Code
 SL  . 43' FSL & 309' FEL:   Surface Location
 PD  .                 GL:   Permanent Datum
 EPD .F              5127:   Elevation Permanent Datum
 LMF .                 KB:   Log Measured From
 DMF .                 KB:   Drilling Measured From
 DD  .F              4080:   Depth driller
 DL  .F              4071:   Depth logger
 BLI .F              4069:   Bottom log interval
 TLI .F                26:   Top log interval
 CS1 .IN            8.625:   Casing size
 CBD1.       8.625 @ 516':   Casing driller 1
 CBL1.F               517:   Casing logger 1
 BS1 .IN            7.875:   Bit size
 DFT .            KCL MUD:   Type fluid in hole
 DFD .                  9:   Density
 DFV .                 38:   Viscosity
 DFPH.                8.5:   pH
 DFL .                 11:   Fluid loss
 MSS .           FLOWLINE:   Source of sample
 RMS .OHMM            3.7:   Rm
 MST .F                65:   Rm Meas. temp.
 RMF .OHMM            2.8:   Rmf
 MFST.F                65:   Rmf Meas. temp.
 RMC .OHMM            4.6:   Rmc
 MCST.F                65:   Rmc Meas. temp.
 MFSS.               CALC:   Source Rmf.
 RMB .OHMM           1.63:   Rm. at BHT
 BHT .F               148:   BHT.
 TCS .HRS               5:   Time Circ. stopped
 MRT .F               148:   Maximum recorded temp.
 LUN .               4082:   Logging unit number
 LUL .          ROOSEVELT:   Logging unit location
 ENGI.            FRANCIS:   Recorded By
 WITN.            JOHNSON:   Witnessed by
 ORIG.         2.5" PRINT:   Origin of data
 UWI .     49025109730000:   Unique Well ID
 DICO. A2D TECHNOLOGIES, INC.:   Digitizing Company
 DAPD.                 10:   Feet Above Permanent Datum
 BSD1.               4080:   Depth drilled with bit1
 MCSS.               CALC:   Source Rmc.
~OTHER INFORMATION
~A   DEPT       DT       TENS         GRR       SPR       RILD       RILM       RFOC       TENR       CALD       NPHI       RHOB       CORR       TEND   
# ...
 3799.5000    91.1760   -54.7210   133.5710   -19.4860     4.4490     4.8350     4.7700   -70.4550     8.4610     0.2680     2.6190     0.0550   -42.0160
 3800.0000    85.5910   -54.5960   119.1900   -19.4910     4.5120     4.8800     6.0460   -70.5680     8.4610     0.2570     2.6670     0.0690   -24.6750
 3800.5000    82.1710   -54.4720   111.0560   -19.4960     4.6070     4.9260     8.0060   -70.6820     8.4610     0.2700     2.6470     0.0750   -31.9250
 3801.0000    81.7330   -54.3470   112.8340   -19.6160     4.7030     4.9710     7.8610   -70.7960     8.4610     0.2810     2.6100     0.0660   -39.1760
 3801.5000    82.4480   -54.2220   120.3070   -19.7370     4.7950     5.0170     7.4130   -70.9090     8.4610     0.2770     2.5690     0.0570   -46.4270
 3802.0000    83.2800   -54.0970   128.6520   -19.8640     4.8490     5.0620     6.7900   -71.0230     8.4610     0.2680     2.5380     0.0510   -53.6770
 3802.5000    84.1120   -53.9730   130.9030   -19.9880     4.9350     5.1080     6.7680   -71.1370     8.4610     0.2600     2.5280     0.0490   -60.9280
 3803.0000    84.8310   -53.8480   129.4570   -20.1080     5.0210     5.1590     6.7420   -71.2500     8.4610     0.2500     2.5270     0.0480   -68.1790
 3803.5000    85.1380   -53.7230   128.5510   -20.2410     5.1590     5.0640     6.7160   -71.3640     8.4610     0.2480     2.5300     0.0410   -75.4290
 3804.0000    85.5720   -53.5990   132.7490   -20.2290     5.0160     4.9550     6.6900   -71.4780     8.4610     0.2520     2.5330     0.0280   -79.2480
 3804.5000    86.1860   -53.4740   136.4070   -20.1370     4.8830     4.8450     6.6660   -71.5910     8.4610     0.2630     2.5340     0.0140   -75.8680
 3805.0000    86.6730   -53.3490   132.9380   -20.0590     4.7510     4.7360     6.5830   -71.7050     8.4610     0.2740     2.5400     0.0080   -72.4880
 3805.5000    87.0150   -53.2250   128.6030   -19.9790     4.6190     4.6270     6.5070   -71.8190     8.4610     0.2720     2.5490     0.0140   -69.1080
 3806.0000    87.3110   -53.1000   124.1980   -19.8980     4.4870     4.5180     6.4270   -71.9320     8.4610     0.2710     2.5540     0.0190   -65.7290
 3806.5000    87.4400   -52.9750   125.4810   -19.8190     4.3540     4.4090     6.2710   -72.0460     8.4610     0.2840     2.5530     0.0320   -62.3490
 3807.0000    87.5530   -52.8510   128.4250   -19.7380     4.2220     4.3000     6.1060   -72.1600     8.4610     0.2960     2.5520     0.0450   -64.6110
 3807.5000    87.6670   -52.7260   131.2770   -19.6580     4.0900     4.1910     5.9420   -72.2730     8.4610     0.3060     2.5510     0.0540   -74.7500
 3808.0000    88.2830   -52.6010   133.6650   -19.5780     3.9580     4.0820     5.7770   -72.3870     8.4610     0.3130     2.5500     0.0520   -84.8900
 3808.5000    89.1930   -52.4760   135.9390   -19.4970     3.8250     3.9730     5.6120   -72.5010     8.4610     0.3160     2.5490     0.0490   -95.0300
 3809.0000    90.1030   -52.3520   137.9830   -19.4170     3.6930     3.8090     5.4500   -72.6140     8.4610     0.3110     2.5490     0.0470  -100.2990
 3809.5000    90.8960   -52.2270   137.9080   -19.3370     3.5770     3.8490     5.2380   -72.7280     8.4610     0.2960     2.5440     0.0390  -100.2990
 3810.0000    92.2910   -52.1020   137.7420   -19.2560     3.8760     4.1630     5.0290   -72.8420     8.4610     0.2820     2.5410     0.0310  -100.2990
 3810.5000    92.2910   -51.9780   137.3120   -19.1760     4.2370     4.5420     4.8210   -72.9550     8.4610     0.2670     2.5470     0.0240  -100.2990
 3811.0000    92.2910   -51.8530   137.0890   -19.0960     4.5970     4.9210     4.7080   -73.0690     8.4610     0.2550     2.5500     0.0170  -100.2990
 3811.5000    87.4040   -51.7280   129.6740   -19.0150     4.9580     5.3010     5.2720   -73.1830     8.4610     0.2400     2.5800     0.0300  -100.2990
 3812.0000    82.5910   -51.6040   118.5470   -18.9350     5.3180     5.6800     7.3420   -73.2960     8.4610     0.2330     2.6100     0.0500  -100.2990
 3812.5000    77.7790   -51.4790   108.4780   -18.8550     5.6790     6.0590     9.4110   -73.4100     8.4610     0.2400     2.6630     0.0520  -100.2990
 3813.0000    73.5660   -51.3540    98.3440   -18.7740     6.0390     6.4510    11.4810   -73.5240     8.4610     0.2470     2.7250     0.0510  -100.2990
 3813.5000    73.1670   -51.2300    87.6950   -18.6930     6.4270     6.2330    12.8880   -73.6370     8.4610     0.2550     2.7660     0.0510   -94.1400
 3814.0000    77.8200   -51.1050    82.8430   -18.6140     6.0650     5.7970    13.3680   -73.7510     8.4610     0.2590     2.7220     0.0510   -79.6550
 3814.5000    82.8540   -50.9800    90.4720   -18.5300     5.6740     5.3610    10.1220   -73.8650     8.4610     0.2820     2.6160     0.0500   -65.1700
 3815.0000    87.7890   -50.8560   100.4190   -18.4550     5.2830     4.9250     7.2600   -73.9780     8.4610     0.3010     2.5430     0.0580   -73.9520
 3815.5000    92.3960   -50.7310   110.4380   -18.3710     4.8920     4.4880     5.2290   -74.0920     8.4610     0.3080     2.5390     0.0720   -94.2320
 3816.0000    94.6930   -50.6060   120.3210   -18.2810     4.5010     4.0520     4.8960   -74.2060     8.4610     0.3140     2.5460     0.0780   -92.4040
 3816.5000    95.4090   -50.4810   129.9930   -17.9880     4.1100     3.6160     4.7610   -74.3190     8.4610     0.3190     2.5480     0.0730   -81.1380
 3817.0000    95.6770   -50.3570   137.0420   -17.7330     3.7190     3.1800     4.7080   -74.4330     8.4610     0.3240     2.5510     0.0670   -69.8710
 3817.5000    96.2470   -50.2320   141.0310   -17.4510     3.3280     2.9240     4.7080   -74.5470     8.4610     0.3290     2.5380     0.0540   -60.3790
 3818.0000    96.8440   -50.1070   138.3930   -17.2190     2.9370     2.8570     4.7080   -74.6600     8.4610     0.3330     2.5240     0.0470   -60.3790
 3818.5000    97.4410   -49.9830   135.2730   -16.8860     2.7180     2.8190     4.7080   -74.7740     8.4610     0.3310     2.5130     0.0490   -60.3790
 3819.0000    98.0390   -49.8580   135.8310   -17.0420     2.7180     2.8190     4.5010   -74.8880     8.4610     0.3290     2.5050     0.0500   -60.3790
 3819.5000    98.5870   -49.7330   139.2460   -16.9670     2.7180     2.8190     4.3040   -75.0010     8.4610     0.3270     2.4970     0.0540   -60.3790
 3820.0000    99.0140   -49.6090   143.1860   -16.7600     2.7400     2.9120     4.1060   -75.1150     8.4610     0.3390     2.4530     0.0690   -60.3790
 3820.5000    99.4620   -49.4840   146.2120   -16.5560     2.8210     2.9990     3.8490   -75.2290     8.4610     0.3560     2.3620     0.0840   -60.3790
 3821.0000    98.8140   -49.3590   139.5300   -16.3590     2.9020     3.0850     3.9440   -75.3420     8.4610     0.3510     2.2930     0.0980   -60.3790
 3821.5000    97.5210   -49.2350   135.3500   -16.1640     2.9820     3.1720     4.2610   -75.4560     8.4610     0.3390     2.2590     0.1130   -60.3790
 3822.0000    96.0590   -49.1100   134.3140   -15.9770     3.0630     3.2590     4.5780   -75.5700     8.4610     0.3270     2.2660     0.0890   -60.3790
 3822.5000    94.6810   -48.9850   135.0250   -16.2330     3.1440     3.3450     4.8940   -75.6830     8.4610     0.3270     2.3530     0.0610   -60.3790
 3823.0000    93.6850   -48.8610   137.5470   -16.5350     3.2250     3.4320     5.2110   -75.7970     8.4610     0.3270     2.4180     0.0360   -60.3790
 3823.5000    93.5330   -48.7360   141.7690   -16.8480     3.3060     3.5190     5.3510   -75.9110     8.4610     0.3160     2.4060     0.0530   -60.3790
 3824.0000    93.7640   -48.6110   143.1380   -17.1490     3.3980     3.6060     5.2110   -76.0240     8.4610     0.3060     2.3810     0.1060   -60.3790
 3824.5000    94.0840   -48.4860   140.8990   -17.4570     3.4940     3.7100     4.8340   -76.1380     8.4610     0.2960     2.3490     0.1650   -60.3790
 3825.0000    92.8000   -48.3620   136.5360   -17.7630     3.5900     3.7100     4.4560   -76.2520     8.4610     0.2930     2.3470     0.1560   -60.3790
