~VERSION INFORMATION
 VERS.                2.0:   CWLS LOG ASCII STANDARD - VERSION 2.0
 WRAP.                 NO:   ONE LINE PER DEPTH STEP
~WELL INFORMATION
#MNEM.UNIT      DATA TYPE    INFORMATION
#----------   ------------   ------------------------------
 STRT.F           29.5000:   START DEPTH
 STOP.F         4082.0000:   STOP DEPTH
 STEP.F            0.5000:   STEP LENGTH
 NULL.          -999.2500:   NO VALUE
 COMP. LAWRENCE ALLISON & ASSOCIATES:   COMPANY
 WELL. LAWRENCE "X" #88-3:   WELL
 FLD .           N P R #3:   FIELD
 LOC .       S3 T38N R78W:   LOCATION
 CNTY.            NATRONA:   COUNTY
 STAT.            WYOMING:   STATE
 CTRY. UNITED STATES OF AMERICA:   COUNTRY
 SRVC.      DRESSER ATLAS:   SERVICE COMPANY
 DATE.        26-AUG-1984:   LOGDATE
 API .     49025109730000:   API NUMBER
~CURVE INFORMATION
#MNEM.UNIT       API CODE    CURVE DESCRIPTION
#----------   ------------   ------------------------------
 DEPT.F                  :   
 DT  .US/F   60 520 00 00:   DELTA TIME
 TENS.LBS    60 635 01 00:   TENSION FROM SONIC
 GRR .GAPI   07 310 01 00:   GAMMA RAY FROM RESISTIVITY
 SPR .MV     07 010 01 00:   SPONTANEOUS POTENTIAL
 ILD.OHMM   07 120 46 00:   DEEP INDUCTION RESISTIVITY
 ILM.OHMM   07 120 44 00:   INDUCTION LOG MEDIUM RESISTIVITY
 RFOC.OHMM   07 220 04 00:   RESISTIVITY FOCUSED LOG RES.
 TENR.LBS    07 635 01 00:   TENSION FROM RESISTIVITY
 CALD.IN     45 280 60 00:   CALIPER FROM DENSITY LOG
 NPHI.DEC    42 890 03 00:   NEUTRON POROSITY SANDSTONE
 RHOB.G/C3   45 350 01 00:   BULK DENSITY
 CORR.G/C3   45 356 01 00:   DENSITY CORRECTION
 TEND.LBS    45 635 01 00:   TENSION FROM DENSITY LOG
~PARAMETER INFORMATION
#MNEM.UNIT          VALUE    DESCRIPTION
#----------   ------------   ------------------------------
 EKB .F         5137.0000:   Kelly bushing
 EGL .F         5127.0000:   Ground level
 EDF .F         5138.0000:   Drilling floor
 TD  .F         4080.0000:   Total depth
 DATE.        26-AUG-1984:   Date logged
 CLNT.            A2DTECH:   Client Code
 SL  . 43' FSL & 309' FEL:   Surface Location
 PD  .                 GL:   Permanent Datum
 EPD .F              5127:   Elevation Permanent Datum
 LMF .                 KB:   Log Measured From
 DMF .                 KB:   Drilling Measured From
 DD  .F              4080:   Depth driller
 DL  .F              4071:   Depth logger
 BLI .F              4069:   Bottom log interval
 TLI .F                26:   Top log interval
 CS1 .IN            8.625:   Casing size
 CBD1.       8.625 @ 516':   Casing driller 1
 CBL1.F               517:   Casing logger 1
 BS1 .IN            7.875:   Bit size
 DFT .            KCL MUD:   Type fluid in hole
 DFD .                  9:   Density
 DFV .                 38:   Viscosity
 DFPH.                8.5:   pH
 DFL .                 11:   Fluid loss
 MSS .           FLOWLINE:   Source of sample
 RMS .OHMM            3.7:   Rm
 MST .F                65:   Rm Meas. temp.
 RMF .OHMM            2.8:   Rmf
 MFST.F                65:   Rmf Meas. temp.
 RMC .OHMM            4.6:   Rmc
 MCST.F                65:   Rmc Meas. temp.
 MFSS.               CALC:   Source Rmf.
 RMB .OHMM           1.63:   Rm. at BHT
 BHT .F               148:   BHT.
 TCS .HRS               5:   Time Circ. stopped
 MRT .F               148:   Maximum recorded temp.
 LUN .               4082:   Logging unit number
 LUL .          ROOSEVELT:   Logging unit location
 ENGI.            FRANCIS:   Recorded By
 WITN.            JOHNSON:   Witnessed by
 ORIG.         2.5" PRINT:   Origin of data
 UWI .     49025109730000:   Unique Well ID
 DICO. A2D TECHNOLOGIES, INC.:   Digitizing Company
 DAPD.                 10:   Feet Above Permanent Datum
 BSD1.               4080:   Depth drilled with bit1
 MCSS.               CALC:   Source Rmc.
~OTHER INFORMATION
~A   DEPT       DT       TENS         GRR       SPR       RILD       RILM       RFOC       TENR       CALD       NPHI       RHOB       CORR       TEND   
# ...
 1667.5000    92.0970   -94.4950   120.3270   -47.7810     6.2510     5.8640     7.0860   -81.0140     9.6810     0.2710     2.5870     0.0680   -72.2840
 1668.0000    91.8150   -94.4100   118.7040   -47.7070     6.3100     5.8570     7.2860   -81.0140     9.6810     0.2720     2.5860     0.0600   -66.8090
 1668.5000    91.5330   -94.3260   116.0870   -47.6330     6.3100     5.8390     7.4410   -81.0140     9.6810     0.2800     2.5850     0.0480   -61.3340
 1669.0000    91.2950   -94.2410   113.1640   -47.5570     6.3100     5.8210     7.4410   -81.0140     9.6810     0.2870     2.5850     0.0370   -55.8600
 1669.5000    91.4370   -94.1560   110.2120   -47.4820     6.3100     5.8030     7.4410   -81.0140     9.6810     0.2940     2.5840     0.0270   -50.3850
 1670.0000    91.8920   -94.0710   106.9930   -47.4070     6.3100     5.7840     7.2710   -81.0140     9.6810     0.2960     2.5900     0.0270   -44.9100
 1670.5000    92.3010   -93.9860   102.0410   -47.3310     6.3100     5.7660     6.9370   -81.0140     9.6810     0.2960     2.5950     0.0320   -40.4190
 1671.0000    92.8090   -93.9010   103.7040   -47.2570     6.1980     5.7580     6.6660   -81.0140     9.6810     0.2970     2.5980     0.0590   -70.5590
 1671.5000    93.2870   -93.8170   107.9280   -47.1820     6.0800     5.7300     6.7240   -81.0140     9.6810     0.2970     2.6080     0.0720   -78.6790
 1672.0000    93.3540   -93.7320   111.2450   -47.1020     5.9610     5.6950     6.7730   -81.0140     9.6810     0.2970     2.6180     0.0730   -75.9900
 1672.5000    93.4180   -93.6470   112.4410   -47.1020     5.8430     5.6590     6.8220   -81.0140     9.6810     0.2930     2.6130     0.0740   -73.3010
 1673.0000    93.4860   -93.5620   113.4600   -47.3160     5.7580     5.6240     6.8710   -81.0140     9.6810     0.2840     2.6060     0.0800   -70.6110
 1673.5000    93.3690   -93.4770   114.4000   -47.5220     5.7580     5.5880     6.9150   -81.0140     9.6810     0.2970     2.5980     0.0910   -67.9220
 1674.0000    93.2050   -93.3920   112.7230   -47.7400     5.7580     5.5510     6.9550   -81.0140     9.6810     0.2940     2.6000     0.0920   -65.2330
 1674.5000    92.9740   -93.3070   111.8030   -47.9530     5.8910     5.5410     7.0090   -81.0140     9.6810     0.2920     2.6090     0.0850   -62.5430
 1675.0000    92.7440   -93.2230   111.5850   -48.1570     6.0320     5.5230     7.0430   -81.0140     9.6810     0.2910     2.6230     0.0780   -60.3790
 1675.5000    92.5130   -93.1380   113.6350   -48.3970     6.1960     5.5040     7.0430   -81.0140     9.6870     0.2950     2.6360     0.0720   -62.3490
 1676.0000    92.2910   -93.0530   115.2900   -48.5610     6.1560     5.4860     7.0430   -81.0140     9.7130     0.2980     2.6430     0.0660   -63.9980
 1676.5000    92.3960   -92.9680   117.2550   -48.9010     6.1080     5.4670     7.0430   -81.0140     9.7370     0.2880     2.6330     0.0590   -65.6460
 1677.0000    92.4980   -92.8830   116.9520   -48.6170     6.0600     5.4490     7.0430   -81.0140     9.7590     0.2800     2.6220     0.0530   -67.2940
 1677.5000    92.6000   -92.7980   113.8930   -48.2430     6.0130     5.4310     7.0430   -81.0140     9.7520     0.2880     2.6220     0.0480   -68.9430
 1678.0000    92.7010   -92.7130   110.6940   -47.8740     5.9730     5.4130     6.9760   -81.0140     9.7460     0.2920     2.6270     0.0660   -70.5910
 1678.5000    92.8030   -92.6290   108.2190   -47.4830     5.9460     5.3940     6.8550   -81.0140     9.7390     0.2980     2.6260     0.0820   -72.2390
 1679.0000    92.8880   -92.5440   105.9110   -47.4810     5.9230     5.3760     6.7340   -81.0140     9.7320     0.2910     2.6220     0.0780   -73.8880
 1679.5000    92.7370   -92.4590   105.4230   -47.5260     5.9000     5.3520     6.6660   -81.0140     9.7250     0.2830     2.6130     0.0650   -75.5360
 1680.0000    92.6060   -92.3740   106.4240   -47.5830     5.8770     5.3610     6.6810   -81.0140     9.7190     0.2770     2.6050     0.0590   -77.1840
 1680.5000    92.4750   -92.2890   107.4660   -47.6250     5.8540     5.3760     6.6950   -81.0140     9.7120     0.2770     2.6060     0.0640   -78.8330
 1681.0000    92.3440   -92.2040   108.3590   -47.6760     5.8310     5.3910     6.7090   -81.0140     9.7050     0.2900     2.6090     0.0680   -80.3390
 1681.5000    92.2120   -92.1190   109.6560   -47.7240     5.8080     5.4060     6.7220   -81.0140     9.6980     0.3090     2.6170     0.0900   -79.4990
 1682.0000    92.0810   -92.0350   108.2740   -47.7710     5.7850     5.4210     6.7360   -81.0140     9.6920     0.3250     2.6150     0.0970   -78.7240
 1682.5000    91.9500   -91.9500   106.3520   -47.8190     5.7570     5.4360     6.7500   -81.0140     9.6850     0.3230     2.6070     0.0900   -77.9500
 1683.0000    91.8190   -91.8650   105.1520   -47.8350     5.7890     5.4500     6.7640   -81.0140     9.6810     0.3120     2.5990     0.0770   -77.1760
 1683.5000    91.6880   -91.7800   102.8480   -47.8340     5.8580     5.4540     6.7780   -81.0140     9.6810     0.3030     2.5920     0.0640   -76.4020
 1684.0000    91.5570   -91.6950    99.9840   -47.8340     5.9270     5.4680     6.7920   -81.0140     9.6810     0.2940     2.5840     0.0510   -75.6280
 1684.5000    91.4260   -91.6100    99.3310   -47.8340     5.9740     5.4810     6.8060   -81.0140     9.6810     0.2850     2.5740     0.0400   -74.8530
 1685.0000    91.2950   -91.5250   105.6950   -47.8340     6.0270     5.4940     6.8200   -81.0140     9.6810     0.2760     2.5690     0.0410   -74.0790
 1685.5000    91.2950   -91.4410   103.8290   -47.8340     6.0840     5.5070     6.8340   -81.0140     9.6810     0.2800     2.5750     0.0350   -73.3050
 1686.0000    91.2950   -91.3560   102.4760   -47.8350     6.0920     5.5210     6.8480   -81.0140     9.6810     0.2980     2.5770     0.0300   -72.5310
 1686.5000    91.2950   -91.2710   100.6070   -47.8210     6.1000     5.5340     6.8620   -81.0140     9.6810     0.2980     2.5730     0.0250   -71.7560
 1687.0000    91.2950   -91.1860   103.2830   -47.7800     6.1090     5.5480     6.8760   -81.0140     9.6810     0.2980     2.5700     0.0210   -70.9820
 1687.5000    91.2950   -91.1010   106.3000   -47.7400     6.1170     5.5610     6.8900   -81.0140     9.6810     0.2980     2.5690     0.0230   -70.2080
 1688.0000    91.2950   -91.0160   109.2950   -47.7000     6.1260     5.5750     6.9040   -81.0140     9.6810     0.2980     2.5690     0.0430   -69.4340
 1688.5000    91.2950   -90.9310   112.2310   -47.6590     6.1340     5.5880     6.9160   -81.0140     9.6810     0.2830     2.5680     0.0420   -68.6600
 1689.0000    91.2950   -90.8470   110.6020   -47.6190     6.1430     5.6010     6.9370   -81.0140     9.6810     0.2950     2.5650     0.0410   -67.8850
 1689.5000    91.2810   -90.7620   107.5420   -47.5780     6.1510     5.6150     6.9540   -81.0140     9.6810     0.2930     2.5590     0.0400   -67.1110
 1690.0000    91.2450   -90.6770   104.7470   -47.5370     6.1600     5.6290     6.9720   -81.0140     9.6810     0.2490     2.5560     0.0410   -66.3370
 1690.5000    91.2090   -90.5920   108.2480   -47.5020     6.1680     5.6410     6.9900   -81.0140     9.6810     0.2830     2.5660     0.0760   -65.5630
 1691.0000    91.1720   -90.5070   112.3080   -47.4460     6.1770     5.6540     7.0090   -81.0140     9.6810     0.2850     2.5780     0.0800   -64.7890
 1691.5000    91.1360   -90.4220   115.3310   -47.5510     6.1850     5.7380     7.0280   -81.0140     9.6810     0.2980     2.5930     0.0620   -64.0140
 1692.0000    91.0960   -90.3370   115.1520   -47.7610     6.1940     5.8160     7.0430   -81.0140     9.6810     0.2930     2.5920     0.0410   -63.2400
 1692.5000    91.0060   -90.2530   113.4530   -47.9510     6.2890     5.8930     7.1290   -81.0140     9.6810     0.2950     2.5860     0.0190   -62.4660
 1693.0000    90.8960   -90.1680   111.6690   -48.1420     6.4120     5.9700     7.2440   -81.0140     9.6810     0.2970     2.5840     0.0120   -61.6920
