~VERSION INFORMATION
 VERS.                2.0:   CWLS LOG ASCII STANDARD - VERSION 2.0
 WRAP.                 NO:   ONE LINE PER DEPTH STEP
~WELL INFORMATION
#MNEM.UNIT      DATA TYPE    INFORMATION
#----------   ------------   ------------------------------
 STRT.F           29.5000:   START DEPTH
 STOP.F         4082.0000:   STOP DEPTH
 STEP.F            0.5000:   STEP LENGTH
 NULL.          -999.2500:   NO VALUE
 COMP. LAWRENCE ALLISON & ASSOCIATES:   COMPANY
 WELL. LAWRENCE "X" #88-3:   WELL
 FLD .           N P R #3:   FIELD
 LOC .       S3 T38N R78W:   LOCATION
 CNTY.            NATRONA:   COUNTY
 STAT.            WYOMING:   STATE
 CTRY. UNITED STATES OF AMERICA:   COUNTRY
 SRVC.      DRESSER ATLAS:   SERVICE COMPANY
 DATE.        26-AUG-1984:   LOGDATE
 API .     49025109730000:   API NUMBER
~CURVE INFORMATION
#MNEM.UNIT       API CODE    CURVE DESCRIPTION
#----------   ------------   ------------------------------
 DEPT.F                  :   
 DT  .US/F   60 520 00 00:   DELTA TIME
 TENS.LBS    60 635 01 00:   TENSION FROM SONIC
 GRR .GAPI   07 310 01 00:   GAMMA RAY FROM RESISTIVITY
 SPR .MV     07 010 01 00:   SPONTANEOUS POTENTIAL
 ILD.OHMM   07 120 46 00:   DEEP INDUCTION RESISTIVITY
 ILM.OHMM   07 120 44 00:   INDUCTION LOG MEDIUM RESISTIVITY
 RFOC.OHMM   07 220 04 00:   RESISTIVITY FOCUSED LOG RES.
 TENR.LBS    07 635 01 00:   TENSION FROM RESISTIVITY
 CALD.IN     45 280 60 00:   CALIPER FROM DENSITY LOG
 NPHI.DEC    42 890 03 00:   NEUTRON POROSITY SANDSTONE
 RHOB.G/C3   45 350 01 00:   BULK DENSITY
 CORR.G/C3   45 356 01 00:   DENSITY CORRECTION
 TEND.LBS    45 635 01 00:   TENSION FROM DENSITY LOG
~PARAMETER INFORMATION
#MNEM.UNIT          VALUE    DESCRIPTION
#----------   ------------   ------------------------------
 EKB .F         5137.0000:   Kelly bushing
 EGL .F         5127.0000:   Ground level
 EDF .F         5138.0000:   Drilling floor
 TD  .F         4080.0000:   Total depth
 DATE.        26-AUG-1984:   Date logged
 CLNT.            A2DTECH:   Client Code
 SL  . 43' FSL & 309' FEL:   Surface Location
 PD  .                 GL:   Permanent Datum
 EPD .F              5127:   Elevation Permanent Datum
 LMF .                 KB:   Log Measured From
 DMF .                 KB:   Drilling Measured From
 DD  .F              4080:   Depth driller
 DL  .F              4071:   Depth logger
 BLI .F              4069:   Bottom log interval
 TLI .F                26:   Top log interval
 CS1 .IN            8.625:   Casing size
 CBD1.       8.625 @ 516':   Casing driller 1
 CBL1.F               517:   Casing logger 1
 BS1 .IN            7.875:   Bit size
 DFT .            KCL MUD:   Type fluid in hole
 DFD .                  9:   Density
 DFV .                 38:   Viscosity
 DFPH.                8.5:   pH
 DFL .                 11:   Fluid loss
 MSS .           FLOWLINE:   Source of sample
 RMS .OHMM            3.7:   Rm
 MST .F                65:   Rm Meas. temp.
 RMF .OHMM            2.8:   Rmf
 MFST.F                65:   Rmf Meas. temp.
 RMC .OHMM            4.6:   Rmc
 MCST.F                65:   Rmc Meas. temp.
 MFSS.               CALC:   Source Rmf.
 RMB .OHMM           1.63:   Rm. at BHT
 BHT .F               148:   BHT.
 TCS .HRS               5:   Time Circ. stopped
 MRT .F               148:   Maximum recorded temp.
 LUN .               4082:   Logging unit number
 LUL .          ROOSEVELT:   Logging unit location
 ENGI.            FRANCIS:   Recorded By
 WITN.            JOHNSON:   Witnessed by
 ORIG.         2.5" PRINT:   Origin of data
 UWI .     49025109730000:   Unique Well ID
 DICO. A2D TECHNOLOGIES, INC.:   Digitizing Company
 DAPD.                 10:   Feet Above Permanent Datum
 BSD1.               4080:   Depth drilled with bit1
 MCSS.               CALC:   Source Rmc.
~OTHER INFORMATION
~A   DEPT       DT       TENS         GRR       SPR       RILD       RILM       RFOC       TENR       CALD       NPHI       RHOB       CORR       TEND   
# ...
 3565.5000    93.5360   -68.2400   157.3340   -31.3170     5.8310     5.7470     7.6390   -84.2130     8.2280     0.2590     2.4320     0.0540  -113.2120
 3566.0000    92.2850   -68.4000   153.0100   -31.4100     5.9450     5.8280     8.1800   -83.5430     8.2290     0.2550     2.4330     0.0530  -111.4630
 3566.5000    91.0330   -68.5590   148.6000   -31.4770     6.0590     5.9090     8.7210   -82.8720     8.2300     0.2610     2.4430     0.0530  -109.7150
 3567.0000    90.4160   -68.7190   146.0340   -31.5550     6.1730     6.0830     9.2620   -82.2010     8.2300     0.2680     2.4540     0.0510  -107.9670
 3567.5000    90.1000   -68.8790   145.3530   -31.6490     6.2870     6.2140     9.7920   -81.5310     8.2310     0.2650     2.4650     0.0500  -106.2190
 3568.0000    90.2200   -69.0390   144.5950   -31.5460     6.4010     6.3760     9.5750   -80.8600     8.2320     0.2580     2.4660     0.0390  -104.4700
 3568.5000    90.3220   -69.1990   148.3130   -31.2280     6.5150     6.5380     9.4000   -80.1900     8.2330     0.2580     2.4630     0.0290  -102.7220
 3569.0000    90.4250   -69.3580   152.7990   -31.1660     6.6290     6.7000     9.1010   -79.5190     8.2330     0.2580     2.4600     0.0190  -100.9740
 3569.5000    90.2310   -69.5180   156.9250   -31.0490     6.7430     6.8620     9.5130   -78.8480     8.2340     0.2580     2.4630     0.0160  -100.6110
 3570.0000    89.2930   -69.6780   157.0130   -30.9620     6.9150     7.0430     9.9940   -78.1780     8.2350     0.2570     2.4650     0.0160  -101.1180
 3570.5000    88.3070   -69.8380   156.8980   -30.7790     6.7950     6.6960    10.4740   -77.5070     8.2360     0.2550     2.4670     0.0460  -101.6250
 3571.0000    87.8210   -69.9980   153.9420   -30.4980     6.5480     6.3020    10.9550   -76.8360     8.2360     0.2530     2.4690     0.0730  -102.1320
 3571.5000    87.3110   -70.1580   150.9840   -30.2310     6.1220     5.9080    11.7600   -76.1660     8.2370     0.2540     2.4710     0.1390  -102.6390
 3572.0000    87.8500   -70.3170   148.7130   -29.9590     5.5250     5.5140    11.3220   -75.4950     8.2380     0.2610     2.4560     0.1470  -103.1460
 3572.5000    90.2390   -70.4770   148.2420   -29.6860     4.5380     5.1200    10.1580   -74.8240     8.2390     0.2620     2.4390     0.1130  -103.6530
 3573.0000    92.6280   -70.6370   147.6950   -29.4200     4.5880     4.7080     8.3240   -74.1540     8.2390     0.2600     2.4220     0.1110  -104.1600
 3573.5000    95.0170   -70.7970   151.6030   -29.1390     4.7080     4.7680     6.7140   -73.4830     8.2400     0.2600     2.3990     0.1060  -104.6670
 3574.0000    95.6770   -70.9570   160.7330   -28.8830     5.0500     4.8320     5.0650   -72.8120     8.2410     0.2640     2.4110     0.1040  -105.1740
 3574.5000    93.1960   -71.1160   156.9280   -28.5760     5.3830     4.8830     5.0650   -72.1420     8.2420     0.2610     2.4460     0.1000  -105.6810
 3575.0000    90.5730   -71.2760   147.0210   -28.6490     5.7160     5.3560     7.8010   -71.4710     8.2420     0.2560     2.4710     0.0970  -106.1880
 3575.5000    87.5100   -71.4360   136.5580   -28.7800     6.0490     5.7550    10.5370   -70.8010     8.2430     0.2540     2.4780     0.0930  -106.6950
 3576.0000    87.1870   -71.5960   136.2270   -28.9170     6.3820     6.1540    10.5370   -70.1300     8.2440     0.2520     2.4690     0.0900  -107.2020
 3576.5000    87.4990   -71.7560   139.6930   -29.0480     6.7150     6.5530    10.5370   -69.4590     8.2450     0.2560     2.4550     0.0870  -107.7090
 3577.0000    88.1080   -71.9160   141.3030   -29.1760     7.0480     6.9520    11.0400   -68.7890     8.2450     0.2600     2.4430     0.0830  -108.2160
 3577.5000    88.1080   -72.0750   139.9400   -29.3200     7.3810     7.3510    10.8680   -68.1180     8.2460     0.2670     2.4330     0.0800  -108.7230
 3578.0000    87.6250   -72.2350   140.6610   -29.2950     7.7140     7.7510     9.3260   -67.4470     8.2470     0.2640     2.4450     0.0770  -109.2300
 3578.5000    86.8770   -72.3950   142.6900   -29.2170     8.0460     8.1500     9.4000   -66.7770     8.2480     0.2530     2.4680     0.0730  -109.7370
 3579.0000    85.7510   -72.5550   144.2820   -29.1350     8.3790     8.5490    10.4640   -66.1060     8.2490     0.2530     2.4810     0.0710  -110.2440
 3579.5000    85.1200   -72.7150   142.5260   -29.0690     8.7120     8.9480    11.5290   -65.4350     8.2490     0.2540     2.4790     0.0720  -110.7500
 3580.0000    85.1200   -72.8740   141.2280   -28.9760     9.0450     9.6150    12.8880   -64.7650     8.2500     0.2540     2.4790     0.0730  -111.2570
 3580.5000    85.1200   -73.0340   141.4420   -28.9090     9.4400     9.5270    12.8490   -64.0940     8.2510     0.2290     2.4780     0.0740  -111.7640
 3581.0000    84.5220   -73.1940   141.9460   -28.4720     9.0500     9.2580    12.6540   -63.4230     8.2520     0.2320     2.4900     0.0790  -112.2710
 3581.5000    83.3700   -73.3540   131.1940   -27.9810     8.3240     8.9900    14.0510   -62.7530     8.2520     0.2350     2.5140     0.0890  -112.7780
 3582.0000    82.1310   -73.5140   120.1920   -27.4730     7.7180     8.7210    18.9310   -62.0820     8.2530     0.2380     2.5100     0.0970  -113.2850
 3582.5000    83.2640   -73.6740   117.1970   -26.9770     7.7180     8.4530    17.1290   -61.4120     8.2540     0.2390     2.4890     0.0990  -113.7920
 3583.0000    85.1410   -73.8330   126.7910   -26.6060     7.7180     8.1840    12.3300   -61.2120     8.2550     0.2310     2.4710     0.1160  -114.2990
 3583.5000    86.5140   -73.9930   138.0750   -26.8030     7.4090     7.9160     5.6540   -61.3480     8.2550     0.2240     2.4790     0.0990  -114.8060
 3584.0000    85.0350   -74.1530   134.1520   -26.9670     7.1490     7.6480     6.8530   -61.4830     8.2560     0.2140     2.5040     0.0830  -115.3130
 3584.5000    83.3530   -74.3130   124.2160   -27.1590     6.8890     7.3790    11.9800   -61.6180     8.2570     0.2250     2.5200     0.0580  -115.8200
 3585.0000    81.9320   -74.4730   114.6620   -27.3330     6.6290     7.1110    17.9190   -61.7540     8.2580     0.2410     2.5050     0.0740  -116.3270
 3585.5000    83.7200   -74.6320   110.1260   -27.5150     6.3690     6.8420    17.2750   -61.8890     8.2580     0.2570     2.4670     0.1220  -116.8340
 3586.0000    86.0520   -74.7920   118.1380   -27.6940     6.1090     6.5740    13.9210   -62.0240     8.2590     0.2730     2.4350     0.1370  -117.3410
 3586.5000    88.3840   -74.9520   136.5450   -27.8740     5.8490     6.3050     8.8090   -62.1600     8.2600     0.2890     2.4390     0.1530  -117.8480
 3587.0000    90.4380   -75.1120   143.9290   -28.0590     5.5890     6.0370     6.7900   -62.2950     8.2610     0.2960     2.4500     0.1300  -118.3550
 3587.5000    91.7180   -75.2720   153.6550   -28.1610     5.3290     5.7680     6.7290   -62.4300     8.2610     0.2910     2.4520     0.1060  -118.8620
 3588.0000    91.9880   -75.4320   162.5160   -28.1450     5.0690     5.5000     6.5450   -62.5660     8.2620     0.2840     2.4460     0.0800  -119.3690
 3588.5000    91.8420   -75.5910   170.4160   -28.0990     4.8090     5.2320     6.8970   -62.7010     8.2630     0.2770     2.4400     0.0550  -119.8760
 3589.0000    91.6930   -75.7510   171.9540   -27.5200     4.5490     4.9630     7.5750   -62.8370     8.2640     0.2700     2.4150     0.0300  -119.5090
 3589.5000    93.8840   -75.9110   171.3540   -26.9870     4.2890     4.6950     8.1540   -62.9720     8.2620     0.2630     2.3670     0.0050  -116.4370
 3590.0000    94.8260   -76.0710   172.6760   -26.3990     4.0290     4.4260     6.6610   -63.1070     8.2600     0.2870     2.3080    -0.0110  -113.3640
 3590.5000    95.4440   -76.2310   174.1860   -26.2250     3.7690     4.1580     5.2800   -63.2430     8.2580     0.2980     2.3280     0.0100  -110.2920
 3591.0000    94.5480   -76.3900   172.7950   -26.7610     3.6330     3.8890     5.6700   -63.3780     8.2570     0.3100     2.3740     0.0430  -107.2190
